CWNS_NUM,FACILITY_ID,STATE,CURRENT_DESIGN_FLOW,FUTURE_DESIGN_FLOW,FACILITY_NAME,FACILITY_TYPE,CITY,LATITUDE,LONGITUDE,PRIMARY_COUNTY,SECONDARY_COUNTY,PRIMARY_WATERSHED_HUC,PRIMARY_WATERSHED_NAME,SMALL_COMMUNITY_IND,AUTHORITY,PRES_EFFLUENT_TREATMENT_LEVEL,PROJ_EFFLUENT_TREATMENT_LEVEL
30000044001,1159112,MT,0.033,0.031,"DODSON, TOWN OF - WWTP",Collection: Separate Sewers,Dodson,48.3892,-108.2556,#N/A,#N/A,#N/A,#N/A,N,"DODSON, TOWN OF",Secondary,Secondary
30000180001,1159221,MT,0.5,0.5,BIGFORK COUNTY WATER & SEWER DIS.,Treatment Plant,Bigfork,48.0638,-114.0831,Flathead,#N/A,17010208,Flathead Lake,N,BIGFORK COUNTY SEWER DISTRICT,Advanced,Advanced
28001370001,1160522,MS,0.07,0.07,"UTICA POTW, SOUTH",Treatment Plant,Utica,32.109092,-90.622721,Hinds,#N/A,08060203,Bayou Pierre,N,"UTICA, TOWN OF",Advanced,Advanced
41000189001,1164420,OR,0.03,0.03,LONG CREEK STP,Treatment Plant,Long Creek,44.7124,-119.1048,#N/A,#N/A,#N/A,#N/A,Y,"LONG CREEK, CITY OF",Secondary,Secondary
41000235001,1164450,OR,0.07,0.073,POWERS STP,Treatment Plant,Powers,42.8877,-124.07,Coos,#N/A,17100305,Coquille,Y,"POWERS, CITY OF",Secondary,Secondary
41000244001,1164458,OR,0.25,0.25,RIDDLE STP,Treatment Plant,Riddle,42.9519,-123.3566,#N/A,#N/A,#N/A,#N/A,Y,"RIDDLE, CITY OF",Secondary,Secondary
47000010001,1165962,TN,0.299,0.299,Adamsville Lagoon,Treatment Plant,Adamsville,35.2252,-88.405,#N/A,#N/A,#N/A,#N/A,N,"ADAMSVILLE, CITY OF",Secondary,Secondary
47000325001,1166025,TN,3.5,3.5,CROSSVILLE STP,Treatment Plant,Crossville,35.9616,-85.0494,Cumberland,#N/A,06010208,Emory,N,"CROSSVILLE, CITY OF",Advanced,Advanced
47000555001,1166059,TN,3,3,Gatlinburg WWTP,Collection: Separate Sewers,Gatlinburg,35.7355,-83.5227,#N/A,#N/A,#N/A,#N/A,N,"Gatlinburg, City of",Advanced,Advanced
47001360001,1166204,TN,1.5,1.5,SOUTH PITTSBURG STP,Collection: Separate Sewers,South Pittsburg,35.0028,-85.7011,Marion,#N/A,06030001,Guntersville Lake,N,"SOUTH PITTSBURG, CITY OF",Secondary,Secondary
47002034001,1166253,TN,0.65,0.65,CLAIBORNE-NEW TAZEWELL STP,Collection: Separate Sewers,New Tazewell,36.4637,-83.5608,#N/A,#N/A,#N/A,#N/A,N,CLAIBORNE UTILITIES  DISTRICT,Advanced,Advanced
22000210001,1168183,LA,0.175,0.175,CHENEYVILLE SEWAGE DISPOSAL SYSTEM,Collection: Separate Sewers,Cheneyville,30.9849,-92.2893,Rapides,#N/A,08080102,Bayou Teche,N,CHENEYVILLE TOWN OF (STP),Advanced,Advanced
22001230001,1168267,LA,0.75,0.75,SCOTT STP,Collection: Separate Sewers,Scott,30.2358,-92.0913,Lafayette,#N/A,08080103,Vermilion,Y,"SCOTT, TOWN OF",Advanced,Advanced
22003072002,1168337,LA,0.8,0.8,VIDALIA MAIN POND,Collection: Pump Stations,Vidalia,31.5649,-91.4614,Concordia,#N/A,08040306,Bayou Cocodrie,N,"VIDALIA, TOWN OF",Advanced,Advanced
22003157001,1168417,LA,0.35,0.35,LOCKPORT STP,Collection: Separate Sewers,Lockport,29.6419,-90.5464,#N/A,#N/A,#N/A,#N/A,N,"LOCKPORT, TOWN OF",Advanced,Advanced
22003221001,1168456,LA,2.5,2.5,TRIUMPH-BURAS STP,Treatment Plant,Buras,29.3416,-89.5167,#N/A,#N/A,#N/A,#N/A,N,PLAQUEMINES PAR GOV'T,Secondary,Secondary
40000009002,1172427,OK,3.5,3.5,MIAMI SOUTHEAST WWT,Collection: Separate Sewers,Miami,36.857,-94.8726,Ottawa,#N/A,11070206,Lake O' The Cherokees,N,"MIAMI, CITY OF",Advanced,Advanced
40000180001,1172572,OK,0.35,0,SKIATOOK (BIRD CREEK) WWT,Treatment Plant,Skiatook,36.363,-95.9853,#N/A,#N/A,#N/A,#N/A,Y,"SKIATOOK, TOWN OF",Secondary,0
40000302001,1172602,OK,0.3,0.3,WESTVILLE UA WWT,Treatment Plant,Westville,35.962,-94.5724,#N/A,#N/A,#N/A,#N/A,Y,Westville Utilities Authority,Advanced,Advanced
40000617001,1172790,OK,0.36,0.36,EUFAULA PWA WWT,Collection: Separate Sewers,Eufaula,35.2587,-95.5838,McIntosh,#N/A,11100302,Lower North Canadian,Y,EUFAULA PWA,Secondary,Secondary
06001079001,1175232,CA,3.01,3.01,Ukiah WWTF,Collection: Separate Sewers,Ukiah,39.1123,-123.1892,Mendocino,#N/A,18010110,Russian,N,City of Ukiah,Advanced,Advanced
06005008001,1175528,CA,5,5,HANFORD WWTF,Collection: Separate Sewers,Hanford,36.2983,-119.6489,Kings,#N/A,18030012,Tulare-Buena Vista Lakes,N,"HANFORD, CITY OF",Secondary,Secondary
06005028001,1175550,CA,1.069,2.34,RIPON WWTF,Treatment Plant,Ripon,37.7314,-121.1331,#N/A,#N/A,#N/A,#N/A,N,"RIPON, CITY OF",Secondary,Secondary
06005261001,1175742,CA,1.11,1.11,AVENAL WWTF,Treatment Plant,Avenal,35.978909,-120.114727,#N/A,#N/A,#N/A,#N/A,N,"Avenal, City of",Secondary,Secondary
06009031002,1176067,CA,32,56.7,North City WRP,Treatment Plant,San Diego,32.8813,-117.1989,San Diego,#N/A,18070304,San Diego,N,City of San Diego Metropolitan Wastewater Depart.,Advanced,Advanced
53000335001,1180789,WA,1.3,1.75,Duvall WWTP,Treatment Plant,Duvall,47.733,-121.9874,King,#N/A,17110010,Snoqualmie,N,DUVALL CITY OF,Secondary,Secondary
53001660001,1180986,WA,0.195,0.195,COULEE DAM Sewer,Collection: Separate Sewers,Coulee Dam,47.976,-118.9691,Okanogan,#N/A,17020001,Franklin D. Roosevelt Lake,Y,COULEE DAM town OF,Secondary,Secondary
48001004001,1182873,TX,0.08,0.08,Goldsmith WWTP,Treatment Plant,Goldsmith,31.5857,-102.3657,#N/A,#N/A,#N/A,#N/A,N,GOLDSMITH,Secondary,Secondary
48001117001,1182918,TX,0.35,1.2,La Joya WWTP,Treatment Plant,La Joya,26.2139,-98.4893,Hidalgo,#N/A,12110207,Central Laguna Madre,N,LA JOYA,Secondary,Secondary
48001146001,1182949,TX,1.51,1.51,Raymondville WWTP,Collection: Separate Sewers,Raymondville,26.489917,-97.772806,#N/A,#N/A,#N/A,#N/A,N,RAYMONDVILLE,Secondary,Secondary
48002010001,1183113,TX,0.38,0.38,Abernathy WWTP,Treatment Plant,Lubbock,33.796,-101.854,#N/A,#N/A,#N/A,#N/A,N,ABERNATHY,Secondary,Secondary
48002058001,1183140,TX,0.7,0.7,Post WWTP,Treatment Plant,Sherman,33.601523,-96.573894,#N/A,#N/A,#N/A,#N/A,N,"CITY OF SHERMAN, POST OAK WWTP",Secondary,Secondary
48002061001,1183142,TX,0.152,0.152,Rotan WWTP,Treatment Plant,Rotan,32.851038,-100.462074,#N/A,#N/A,#N/A,#N/A,N,ROTAN,Secondary,Secondary
48009516001,1184517,TX,2.5,5,New Territory Regional (North) WWTP,Treatment Plant,Sugar Land,29.5783,-95.6961,#N/A,#N/A,#N/A,#N/A,N,FORT BEND COUNTY MUD NO. 112,Secondary,Secondary
51000009001,1192591,VA,1,1,LEBANON WWTP & Coll. System,Collection: Separate Sewers,Lebanon,36.911111,-82.040277,Russell,#N/A,06010205,Upper Clinch,N,Town of Lebanon,Secondary,Secondary
51000130001,1192710,VA,3,3,GALAX SEWAGE FACILITY,Storage Facility,Galax,36.6714,-80.9339,Galax,#N/A,05050001,Upper New,N,Galax WWTP,Secondary,Secondary
36003133002,1220577,NY,0.055,0.055,Marlborough (T) Milton STP,Collection: Separate Sewers,Milton,41.65363,-73.95573,#N/A,#N/A,#N/A,#N/A,Y,"MARLBOROUGH, TOWN OF",Secondary,Secondary
36005029001,1220843,NY,2.62,2.62,Saranac Lake (V) STP & San Sewers,Treatment Plant,Saranac Lake,44.347913,-74.114885,Essex,#N/A,04150406,0,Y,"SARANAC LAKE, VILLAGE OF",Secondary,Advanced
36008048005,1221248,NY,0.043,0.043,Savannah (T) WWTP,Treatment Plant,Savannah,43.073333,-76.756389,Wayne,#N/A,04140201,Seneca,N,Savannah (T),Secondary,Secondary
36008061002,1221261,NY,0.5,0.5,Ontario (Co) Honeoye Lake SD WWTP,Treatment Plant,Honeoye,42.791,-77.5151,#N/A,#N/A,#N/A,#N/A,N,HONEOYE LAKE CO SD,Advanced,Advanced
36008160001,1221306,NY,0.061,0.061,Gorham (T) STP,Treatment Plant,Gorham,42.803651,-77.133636,Ontario,#N/A,04140201,Seneca,N,"GORHAM, TOWN OF",Secondary,Secondary
36009031001,1221355,NY,7,7,Olean (C) WWTP,Treatment Plant,Olean,42.069846,-78.43123,Cattaraugus,#N/A,05010001,Upper Allegheny,N,OLEAN (C),Secondary,Secondary
19000886001,1124226,IA,0.43,0.43,WALFORD WWTP,Collection: Separate Sewers,Walford,41.8728,-91.8406,Benton,#N/A,07080208,Middle Iowa,Y,"WALFORD, CITY OF",Secondary,Advanced
16000078001,1128628,ID,0.065,0.065,BOVILL S/T FACILITY,Collection: Combined Sewers,Bovill,46.8556,-116.3981,#N/A,#N/A,#N/A,#N/A,Y,CITY OF BOVILL,Secondary,Secondary
16000153001,1128681,ID,0.08,0.11,FIRTH S/T FACILITY,Collection: Separate Sewers,Firth,43.3088,-112.1921,Bingham,#N/A,17040206,American Falls,Y,CITY OF FIRTH,Secondary,Secondary
16000185001,1128709,ID,2,3.48,HAYDEN AREA REGIONAL S/T FACILITY,Treatment Plant,Hayden,47.7694,-116.8308,#N/A,#N/A,#N/A,#N/A,N,HAYDEN AREA REGIONAL SEWER BOARD,Secondary,Advanced
16000219001,1128740,ID,0.074,0.074,AHSAHKA STP,Treatment Plant,Ahsahka,46.5009,-116.3198,#N/A,#N/A,#N/A,#N/A,Y,AHSAHKA WATER & SEWER DISTRICT,Secondary,Secondary
20000503001,1130327,KS,0.168,0.168,BUHLER WWTP,Treatment Plant,Buhler,38.1264,-97.7708,#N/A,#N/A,#N/A,#N/A,N,"BUHLER, CITY OF",Advanced,Advanced
20001315001,1130584,KS,0.04,0.02,HANSTON WWTP,Collection: Separate Sewers,Hanston,38.1262,-99.705,Hodgeman,#N/A,11030006,Buckner,N,"HANSTON, CITY OF",Secondary,Secondary
20006846001,1130691,KS,0.065,0.065,TROY WEST WWTP (MOSQUITO CRK),Treatment Plant,Troy,39.7873,-95.076,#N/A,#N/A,#N/A,#N/A,N,"TROY, KANSAS",Secondary,Secondary
29001009001,1133239,MO,11,11,Jefferson City WWTP,Collection: Pump Stations,Jefferson City,38.5847,-92.1691,Callaway,#N/A,10300102,Lower Missouri-Moreau,N,City of Jefferson,Advanced,Advanced
29001015001,1133262,MO,7.1,7.1,Marshall WWTP,Treatment Plant,Marshall,39.106,-93.158306,Saline,#N/A,10300104,Blackwater,N,Marshall Municipal Utilities,Advanced,Advanced
29001022001,1133274,MO,27,27,St. Joseph WWTP,Collection: Combined Sewers,Saint Joseph,39.730774,-94.869801,Buchanan,#N/A,10240011,Independence-Sugar,N,City of St. Joseph,Advanced,Advanced
29001066001,1133347,MO,0.06,0.098,Pilot Grove East WWTP,Treatment Plant,Pilot Grove,38.869835,-92.899747,Cooper,#N/A,10300102,Lower Missouri-Moreau,Y,City of Pilot Grove,Advanced,Advanced
29001237034,1133600,MO,0.006,0,Sunnyslope Subd.,Collection: Interceptor Sewers,Hallsville,39.123421,-92.237,Boone,#N/A,10300102,Lower Missouri-Moreau,N,Boone County Regional Sewer District,Advanced,0
29002011001,1133629,MO,0.037,0.037,Clearmont WWTF,Collection: Separate Sewers,Clearmont,40.5006,-95.0366,#N/A,#N/A,#N/A,#N/A,Y,City of Clearmont,Advanced,Advanced
29002480001,1133862,MO,0.044,0.044,Mayview WWTP,Collection: Separate Sewers,Mayview,39.05958,-93.81467,Lafayette,#N/A,10300101,Lower Missouri-Crooked,Y,City of Mayview,Advanced,Advanced
29003715000,1134005,MO,0.04,0.04,Montauk State Park,Collection: Separate Sewers,Salem,37.44788,-91.671857,#N/A,#N/A,#N/A,#N/A,Y,"MDNR, Division of State Parks",Secondary,Secondary
29004052001,1134071,MO,0.85,0.85,Fredericktown WWTP,Treatment Plant,Fredericktown,37.56478,-90.298503,Madison,#N/A,08020202,Upper St. Francis,Y,City of Fredericktown,Advanced,Advanced
21000056001,1139524,KY,46.5,46.5,N KY SD1 - DRY CREEK STP,Collection: Combined Sewers,Erlanger,39.058611,-84.618056,Kenton,#N/A,05090203,Middle Ohio-Laughery,N,N KY Sanitation District No. 1,Secondary,Secondary
21000093001,1139558,KY,0.5,0.75,EMINENCE STP,Collection: Separate Sewers,Eminence,38.3579,-85.1888,#N/A,#N/A,#N/A,#N/A,N,"EMINENCE,CITY OF",Secondary,Secondary
21000203001,1139634,KY,0.11,0.28,CRAB ORCHARD,Treatment Plant,Crab Orchard,37.4636,-84.5024,Lincoln,#N/A,05100205,Lower Kentucky,N,City of Crab Orchard,Secondary,Secondary
23000011001,1142442,ME,14.2,14.2,LEWISTON-AUBURN W W T P,Treatment Plant,Lewiston,44.0756,-70.2044,Androscoggin,#N/A,01040002,Lower Androscoggin,Y,LEWISTON-AUBURN WATER POLLUTIO,Secondary,Secondary
23000048001,1142483,ME,2,2.57,LINCOLN WWTF,Collection: Separate Sewers,Lincoln,45.3749,-68.5072,#N/A,#N/A,#N/A,#N/A,N,LINCOLN SANITARY DISTRICT,Secondary,Secondary
23000089001,1142528,ME,0.75,0.75,FREEPORT WWTF,Collection: Pump Stations,Freeport,43.832413,-70.101522,Cumberland,#N/A,01060001,Presumpscot,N,Freeport Sewer District,Secondary,Secondary
23000101001,1142540,ME,0.19,0.19,NORRIDGEWOCK WWTF,Treatment Plant,Norridgewock,44.720515,-69.793267,Somerset,#N/A,01030003,Lower Kennebec,N,TOWN OF NORRIDGEWOCK,Secondary,Secondary
31001461001,1145954,NE,0.02,0.03,DUNBAR WWTP,Treatment Plant,Dunbar,40.6659,-96.0239,Otoe,#N/A,10240006,Little Nemaha,N,"DUNBAR, VILLAGE OF",Secondary,Secondary
53000420001,1180796,WA,31.3,36.3,Everett WWTP,Treatment Plant,Everett,47.9938,-122.1781,Snohomish,#N/A,17110011,Snohomish,N,EVERETT CITY OF,Secondary,Secondary
53000776001,1180844,WA,122,122,King County South Treatment Plant,Collection: Combined Sewers,Renton,47.4708,-122.243,King,#N/A,17110013,Duwamish,N,King County,Secondary,Advanced
53000795001,1180849,WA,0.67,0.67,MONTESANO WWPCP,Collection: Separate Sewers,Montesano,46.9675,-123.6062,#N/A,#N/A,#N/A,#N/A,N,MONTESANO CITY OF,Secondary,Secondary
53001730001,1180997,WA,0.11,0.11,ENTIAT POTW,Treatment Plant,Entiat,47.675686,-120.206595,#N/A,#N/A,#N/A,#N/A,Y,ENTIAT CITY OF,Secondary,Secondary
53002125001,1181036,WA,0.54,0.54,OKANOGAN S/T FAC.,Treatment Plant,Okanogan,48.3528,-119.594,#N/A,#N/A,#N/A,#N/A,N,OKANOGAN CITY OF,Secondary,Secondary
53002445001,1181070,WA,0.051,0.051,WALLA WALLA WD #2 STP,Treatment Plant,Walla Walla,46.0638,-118.3738,#N/A,#N/A,#N/A,#N/A,N,Walla Walla Water District No. 2,Secondary,Secondary
48000005001,1182793,TX,9.6,9.6,Victoria Regional WWTP,Collection: Separate Sewers,Victoria,28.7552,-97.0009,#N/A,#N/A,#N/A,#N/A,N,Victoria,Secondary,Secondary
48000169001,1182850,TX,0.045,0.045,Texline WWTP,Collection: Separate Sewers,Texline,36.379486,-103.023691,#N/A,#N/A,#N/A,#N/A,N,TEXLINE,Secondary,Secondary
48001008001,1182878,TX,3.8,3.8,Del Rio - San Felipe WWTP,Treatment Plant,Del Rio,29.308056,-100.886111,#N/A,#N/A,#N/A,#N/A,N,CITY OF DEL RIO,Secondary,Secondary
48003066001,1183222,TX,0.25,0.25,CALVERT STP,Collection: Separate Sewers,Calvert,30.9696,-96.6836,#N/A,#N/A,#N/A,#N/A,N,CITY OF CALVERT,Secondary,Secondary
48003114001,1183259,TX,0.08,0.08,Streetman WWTP,Collection: Separate Sewers,Streetman,31.8707,-96.3233,Freestone,#N/A,12030201,Lower Trinity-Tehuacana,N,CITY OF STREETMAN,Secondary,Secondary
48004089001,1183398,TX,0.63,0.63,GTUA-Whitewright WWTP,Collection: Separate Sewers,Whitewright,33.520277,-96.391388,Fannin,#N/A,11140101,Bois D'arc-Island,N,Whitewright (Greater Texoma UA),Secondary,Secondary
48004150001,1183457,TX,0.066,0.066,Sadler WWTP,Treatment Plant,Sadler,33.6829,-96.8585,#N/A,#N/A,#N/A,#N/A,N,CITY OF SADLER,Secondary,Secondary
48004354010,1183525,TX,1.2,1.2,Squabble Creek WWTP,Collection: Separate Sewers,Rockwall,32.9515,-96.468583,#N/A,#N/A,#N/A,#N/A,N,NORTH TEXAS MWD,Secondary,Secondary
48005243001,1183665,TX,0.06,0.06,Diana WWTP,Collection: Separate Sewers,Diana,32.6907,-94.7483,#N/A,#N/A,#N/A,#N/A,N,DIANA SPECIAL UTILITY DISTRICT,Secondary,Secondary
48006043002,1183706,TX,3.3,6,Lumberton MUD WWTP # 2,Collection: Separate Sewers,Lumberton,30.230472,-94.215889,Hardin,#N/A,12020007,Pine Island Bayou,N,Lumberton MUD,Advanced,Advanced
48007524001,1184121,TX,1.3,1.3,Fallbrook UD WWTP,Treatment Plant,Houston,29.946,-95.4214,#N/A,#N/A,#N/A,#N/A,N,FALLBROOK UD,Secondary,Secondary
48007651002,1184195,TX,0.042,0.042,Dime Box WWTP,Collection: Separate Sewers,Houston,30.039313,-95.434684,#N/A,#N/A,#N/A,#N/A,N,HARRIS COUNTY WCID 110,Secondary,Secondary
55000380001,1206069,WI,5.6,5.6,BEAVER DAM WWTP,Treatment Plant,Beaver Dam,43.4442,-88.844,Dodge,#N/A,07090001,Upper Rock,N,BEAVER DAM CITY WWTF,Advanced,Advanced
55000708001,1206102,WI,12.5,12.5,BROOKFIELD - Fox River WPCC,Treatment Plant,Brookfield,43.0524,-88.1764,Waukesha,#N/A,07120006,Upper Fox,N,BROOKFIELD FOX WATER POLLUTION,Advanced,Advanced
55001930001,1206267,WI,0.013,0.013,GLEN FLORA WWTP,Collection: Separate Sewers,Glen Flora,45.49867,-90.89182,Rusk,#N/A,07050001,Upper Chippewa,Y,GLEN FLORA VILLAGE,Advanced,Advanced
55004920001,1206676,WI,0.089,0.089,UNITY STP,Treatment Plant,Unity,44.8375,-90.319,Marathon,#N/A,07040007,Black,Y,"UNITY, VILLAGE OF",Secondary,Secondary
55009631001,1206901,WI,0.3,0.3,GREEN LAKE SD #1 - STP,Treatment Plant,Green Lake,43.8193,-89.0674,Green Lake,#N/A,04030201,Upper Fox,Y,GREEN LAKE SANITARY DISTRICT,Secondary,Secondary
55009669001,1206917,WI,0.018,0.018,KOSSUTH SD #2 STP,Treatment Plant,Francis Creek,44.170528,-87.700083,#N/A,#N/A,#N/A,#N/A,Y,KOSSUTH SANITARY DISTRICT NO 2,Advanced,Advanced
24000090016,1214410,MD,0.06,0.06,SWALLOW FALLS STATE PARK,Treatment Plant,Oakland,39.494,-79.4253,#N/A,#N/A,#N/A,#N/A,N,MARYLAND ENVIRONMENTAL SERVICE,Secondary,Advanced
36001010006,1220251,NY,72,72,NCSD #3 - Cedar Creek STP,Collection: Pump Stations,Wantagh,40.652306,-73.506472,Nassau,#N/A,02030203,Long Island Sound,N,Nassau County,Secondary,Secondary
36001013001,1220260,NY,4,4,North Hempstead (T) Port Washington WPCD,Treatment Plant,Port Washington,40.83944,-73.69721,Nassau,#N/A,02030201,Northern Long Island,N,PORT WASHINGTON WPCD,Advanced,Advanced
36006026001,1220956,NY,0.5,0.5,Cape Vincent (V) STP,Collection: Separate Sewers,Cape Vincent,44.1336,-76.32,#N/A,#N/A,#N/A,#N/A,Y,"CAPE VINCENT, VILLAGE OF",Secondary,Secondary
36006060001,1220978,NY,2,2,Lowville (V) STP,Treatment Plant,Lowville,43.783833,-75.476306,#N/A,#N/A,#N/A,#N/A,N,"LOWVILLE, VILLAGE OF",Advanced,Advanced
36007075001,1221090,NY,2.5,2.5,Norwich (C) STP,Collection: Separate Sewers,Norwich,42.511944,-75.517778,Chenango,#N/A,02050102,Chenango,Y,"NORWICH, CITY OF",Secondary,Advanced
36009090001,1221437,NY,3.5,3.5,Grand Island (T) STP SD #2,Collection: Separate Sewers,Grand Island,43.05739,-78.96687,#N/A,#N/A,#N/A,#N/A,N,"GRAND ISLAND, TOWN OF",Advanced,Advanced
48008023001,1227937,TX,0.2,0.2,Marion WWTP,Collection: Separate Sewers,Marion,29.5649,-98.1436,#N/A,#N/A,#N/A,#N/A,N,CITY OF MARION,Secondary,Secondary
48008036001,1227938,TX,0.26,0.285,Yorktown WWTP,Collection: Separate Sewers,Yorktown,28.97175,-97.50075,#N/A,#N/A,#N/A,#N/A,N,CITY OF YORKTOWN,Secondary,Secondary
55002070001,1229182,WI,3.6,3.6,HARTFORD WPCF,Treatment Plant,Hartford,43.3303,-88.4106,Washington,#N/A,07090001,Upper Rock,N,HARTFORD WATER POLLUTION CTRL,Advanced,Advanced
55002220001,1229184,WI,2.2,2.2,HUDSON WWTP,Biosolids Handling Facility,Hudson,44.966498,-92.756109,St. Croix,#N/A,07030005,Lower St. Croix,N,HUDSON CITY WWTF,Advanced,Advanced
31000907001,1230201,NE,0.008,0.006,SALEM SEPTIC TANKS,Treatment Plant,Salem,40.074131,-95.720615,#N/A,#N/A,#N/A,#N/A,N,"SALEM, VILLAGE OF",Secondary,Secondary
31001610001,1230233,NE,0.23,0.23,MILFORD WWTP,Treatment Plant,Milford,40.7742,-97.0504,#N/A,#N/A,#N/A,#N/A,N,MILFORD WWTF,Advanced,Advanced
27000138001,1231493,MN,0.35,0.35,VERMILLION WWTP,Treatment Plant,Vermillion,44.6778,-92.9644,#N/A,#N/A,#N/A,#N/A,Y,VERMILLION,Secondary,Secondary
27000352001,1231508,MN,2.36,2.36,MONTICELLO WWTP,Treatment Plant,Monticello,45.2979,-93.776,Wright,#N/A,07010203,Clearwater-Elk,N,MONTICELLO,Secondary,Secondary
48001114001,1227764,TX,5.9,11,Edinburg WWTP,Treatment Plant,Edinburg,26.309177,-98.136498,Hidalgo,#N/A,12110208,South Laguna Madre,N,EDINBURG,Advanced,Advanced
48003071001,1227813,TX,0.73,0.73,Comanche WWTP,Collection: Separate Sewers,Comanche,31.8932,-98.5928,#N/A,#N/A,#N/A,#N/A,N,COMANCHE,Secondary,Secondary
48003089001,1227819,TX,0.25,0.25,Hubbard WWTP,Treatment Plant,Hubbard,31.835521,-96.792548,#N/A,#N/A,#N/A,#N/A,N,HUBBARD,Secondary,Secondary
48005020002,1227871,TX,8,8,Marshall WWTP,Collection: Interceptor Sewers,Marshall,32.4898,-94.3342,Harrison,#N/A,12010002,Middle Sabine,N,CITY OF MARSHALL - SOUTHSIDE,Secondary,Secondary
48007198001,1227918,TX,0.5,0.5,Arcola WWTP,Treatment Plant,Galveston,29.4972,-95.4621,#N/A,#N/A,#N/A,#N/A,N,CITY OF ARCOLA,Secondary,Secondary
55001570001,1229169,WI,0.358,0.5,ELLSWORTH WWTP,Biosolids Handling Facility,Ellsworth,44.7299,-92.458,Pierce,#N/A,07040001,Rush-Vermillion,Y,"ELLSWORTH, VILLAGE OF",Advanced,Advanced
31000610001,1230191,NE,0.17,0.17,CREIGHTON WWTP,Collection: Separate Sewers,Creighton,42.4719,-97.9042,Knox,#N/A,10170101,Lewis And Clark Lake,N,CREIGHTON WWTF,Advanced,Advanced
31001885001,1230240,NE,0.1,0.1,OXFORD WWTP,Collection: Separate Sewers,Oxford,40.1449,-99.3812,Furnas,#N/A,10250011,Lower Sappa,N,Village of Oxford,Secondary,Secondary
20001611001,1230951,KS,0.103,0.103,LEON WWTP,Treatment Plant,Leon,37.6859,-96.7773,#N/A,#N/A,#N/A,#N/A,N,"LEON, CITY OF",Secondary,Secondary
27000353001,1231509,MN,0.781,0.781,MONTROSE WWTP,Collection: Separate Sewers,Montrose,45.0569,-93.9027,#N/A,#N/A,#N/A,#N/A,Y,MONTROSE,Advanced,Advanced
17001812001,1232731,IL,0.85,0.72,ANNA STP,Treatment Plant,Anna,37.4764,-89.2364,#N/A,#N/A,#N/A,#N/A,N,"ANNA STP, CITY OF",Advanced,Advanced
18004695001,1234209,IN,0.6,0.6,WARREN WWTP,Collection: Combined Sewers,Warren,40.684,-85.4308,#N/A,#N/A,#N/A,#N/A,Y,LEE POULSON,Advanced,Advanced
18005253001,1234218,IN,0.07,0.07,WINSLOW WWTP,Treatment Plant,Winslow,38.3797,-87.2167,Pike,#N/A,05120209,Patoka,Y,WINSLOW MUNICIPAL STP,Secondary,Secondary
19000362001,1234659,IA,1.374,1.374,HAMPTON WWTP,Treatment Plant,Hampton,42.7416,-93.1931,Franklin,#N/A,07080204,West Fork Cedar,Y,HAMPTON CITY OF,Advanced,Advanced
19000877001,1234688,IA,0.2,0.2,VICTOR WASTEWATER,Collection: Separate Sewers,Victor,41.7333,-92.3114,Poweshiek,#N/A,07080208,Middle Iowa,Y,VICTOR TOWN OF,Secondary,Advanced
47001130001,1235069,TN,0.254,0.254,PIKEVILLE WWTP,Treatment Plant,Pikeville,35.5951,-85.196,#N/A,#N/A,#N/A,#N/A,N,"PIKEVILLE, CITY OF",Advanced,Advanced
51000047001,1235955,VA,0.24,0.24,BUCHANAN STP,Collection: Pump Stations,Buchanan,37.52836,-79.66899,Botetourt,#N/A,02080201,Upper James,N,Town of Buchanan,Secondary,Secondary
31001467001,1145957,NE,0.04,0.04,OTOE WWTP,Collection: Separate Sewers,Otoe,40.725,-96.1167,Otoe,#N/A,10240001,Keg-Weeping Water,N,Village of Otoe,Secondary,Secondary
31002185001,1146040,NE,2.31,2.31,SCOTTS BLUFF WWTP,Collection: Separate Sewers,Scottsbluff,41.8378,-103.6067,Scotts Bluff,#N/A,10180009,Middle North Platte-Scotts Bluff,N,City of Scottsbluff,Advanced,Advanced
27001503001,1148216,MN,0.106,0.106,BARRETT WWTP,Biosolids Handling Facility,Barrett,45.90065435,-95.89602302,Grant,#N/A,07020002,Pomme De Terre,Y,"BARRETT, CITY OF",Advanced,Advanced
27002201001,1148259,MN,0.061,0.061,LONGVILLE WWTP,Treatment Plant,Longville,46.9875,-94.2039,#N/A,#N/A,#N/A,#N/A,Y,"LONGVILLE, CITY OF",Advanced,Advanced
27002601001,1148263,MN,0.18,0,KEEWATIN WWTP,Collection: Separate Sewers,Keewatin,47.3935,-93.0732,#N/A,#N/A,#N/A,#N/A,Y,"KEEWATIN, CITY OF",Advanced,0
27003704001,1148304,MN,0.03,0.03,BELLINGHAM WWTF,Treatment Plant,Bellingham,45.1262462,-96.28778801,#N/A,#N/A,#N/A,#N/A,N,"BELLINGHAM, CITY OF",Secondary,Secondary
27005103001,1148325,MN,0.05,0.05,HANSKA WWTF,Collection: Separate Sewers,Hanska,44.1524,-94.4791,#N/A,#N/A,#N/A,#N/A,Y,"HANSKA, CITY OF",Secondary,Secondary
27005119001,1148329,MN,0.181,0.181,FINLAYSON WWTP,Treatment Plant,Finlayson,46.1873,-92.9078,#N/A,#N/A,#N/A,#N/A,Y,"FINLAYSON, CITY OF",Secondary,Secondary
27005401001,1148337,MN,0.062,0.062,FOUNTAIN WWTF,Treatment Plant,Fountain,43.73497151,-92.13969017,#N/A,#N/A,#N/A,#N/A,Y,"FOUNTAIN, CITY OF",Advanced,Advanced
27005702001,1148359,MN,0.919,0.919,SILVER BAY WWTP,Collection: Pump Stations,Silver Bay,47.29514522,-91.27000569,Lake,#N/A,04010102,Beaver-Lester,Y,"SILVER BAY, CITY OF",Advanced,Advanced
27009215001,1148466,MN,0.03,0.03,WINGER WWTP,Treatment Plant,Winger,47.52805857,-95.9887983,Polk,#N/A,09020301,Sandhill-Wilson,Y,"WINGER, CITY OF",Secondary,Secondary
27009220001,1148467,MN,0.186,0.186,BIRD ISLAND WWTP,Treatment Plant,Bird Island,44.7603,-94.9053,#N/A,#N/A,#N/A,#N/A,Y,"BIRD ISLAND, CITY OF",Secondary,Secondary
38000011001,1151266,ND,0.25,0.25,CASSELTON WASTEWATER,Collection: Separate Sewers,Casselton,46.90154,-97.21076,Cass,#N/A,09020205,Maple,Y,"CASSELTON, CITY OF",Secondary,Secondary
38000034001,1151287,ND,0.11,0.11,HEBRON WASTEWATER,Collection: Separate Sewers,Hebron,46.904808,-102.028679,Morton,#N/A,10130201,Knife,Y,"HEBRON, CITY OF",Secondary,Secondary
38000046001,1151299,ND,0.03,0.03,WILDROSE WASTEWATER,Treatment Plant,Wildrose,48.63185,-103.18259,#N/A,#N/A,#N/A,#N/A,Y,"WILDROSE, CITY OF",Secondary,Secondary
38000133001,1151380,ND,0.01,0.01,CARPIO WASTEWATER,Collection: Separate Sewers,Carpio,48.44397,-101.71495,Ward,#N/A,09010002,Des Lacs,Y,"CARPIO, CITY OF",Secondary,Secondary
38000195001,1151438,ND,0.02,0.02,GRENORA WASTEWATER,Collection: Separate Sewers,Grenora,48.61673,-103.9374,Williams,#N/A,10060007,Brush Lake Closed Basin,Y,"GRENORA, CITY OF",Secondary,Secondary
38000214001,1151455,ND,0.04,0.04,HOOPLE WASTEWATER,Treatment Plant,Hoople,48.541088,-97.642899,#N/A,#N/A,#N/A,#N/A,Y,"HOOPLE, CITY OF",Secondary,Secondary
38000253001,1151493,ND,0.03,0.03,MEDINA WASTEWATER,Treatment Plant,Medina,46.899326,-99.307976,Stutsman,#N/A,10130103,Apple,Y,"MEDINA, CITY OF",Secondary,Secondary
38000254001,1151494,ND,0.02,0.02,MEDORA WASTEWATER,Treatment Plant,Medora,46.9117,-103.5121,Billings,#N/A,10110203,Middle Little Missouri,Y,"MEDORA, CITY OF",Secondary,Secondary
37007602001,1153617,NC,0.48,0.48,Ramseur WWTP,Collection: Separate Sewers,Ramseur,35.7329,-79.6535,Randolph,#N/A,03030003,Deep,Y,"Ramseur, Town of",Secondary,Secondary
37007808001,1153638,NC,0.2,0.2,PARKTON WWTP,Collection: Separate Sewers,Parkton,34.882063,-78.999453,Robeson,#N/A,03040203,Lumber,N,Parkton WWTP,Advanced,Advanced
37009501001,1153784,NC,0.8,0.8,BLOWING ROCK WWTP,Treatment Plant,Blowing Rock,36.1409,-81.6698,Watauga,#N/A,05050001,Upper New,N,"BLOWING ROCK, TOWN OF",Secondary,Secondary
48007792001,1184273,TX,0.25,0.25,Far Hills CS - Kingston Cove WWTP,Collection: Separate Sewers,Willis,30.40395,-95.55353,#N/A,#N/A,#N/A,#N/A,N,FAR HILLS UD,Secondary,Secondary
56000021001,1194790,WY,0.11,0.11,MEDICINE BOW LAGOON,Collection: Separate Sewers,Medicine Bow,41.9073,-106.2069,#N/A,#N/A,#N/A,#N/A,N,"MEDICINE BOW, TOWN OF",Advanced,Advanced
56000035001,1194800,WY,0.14,0.14,BAGGS LAGOON,Treatment Plant,Baggs,41.0509,-107.6434,Carbon,#N/A,14050004,Muddy,N,"Baggs, Town of",Secondary,Secondary
42001006001,1195504,PA,15.2,15.2,Capital Region Water,Treatment Plant,Harrisburg,40.2391,-76.8561,Dauphin,#N/A,02050305,Lower Susquehanna-Swatara,N,Capital Region Water,Advanced,Advanced
42002017001,1195788,PA,8.9,8.9,GREATER HAZLETON STP,Treatment Plant,Hazleton,40.9708,-76.0231,Luzerne,#N/A,02050107,Upper Susquehanna-Lackawanna,N,GREATER HAZELTON JNT SEW AUTH,Secondary,Secondary
42005174001,1196666,PA,0.65,0.65,DERRY BOROUGH STP,Treatment Plant,Derry,40.333,-79.2992,#N/A,#N/A,#N/A,#N/A,N,DERRY BORO,Advanced,Advanced
42005428001,1196925,PA,1.11,1.11,FORD CITY STP,Collection: Combined Sewers,Ford City,40.7812,-79.5248,#N/A,#N/A,#N/A,#N/A,N,Ford City Municipal Sewage Disposal Authority WWTP,Secondary,Secondary
05000495001,1105280,AR,0.28,0.28,Foreman WWTP,Collection: Pump Stations,Foreman,33.717637,-94.382718,Little River,#N/A,11140109,Lower Little,Y,Foreman,Advanced,Advanced
05000514001,1105314,AR,0.412,0.412,Carlisle WWTP,Collection: Separate Sewers,Carlisle,34.770083,-91.753222,Lonoke,#N/A,08020402,Bayou Meto,Y,Carlisle,Secondary,Secondary
05000638001,1105438,AR,0.5,0.5,Des Arc WWTP,Treatment Plant,Des Arc,34.962472,-91.495444,Prairie,#N/A,08020301,Lower White-Bayou Des Arc,Y,Des Arc,Secondary,Secondary
13000080001,1109083,GA,0.09,0.09,Bowman Pond,Collection: Separate Sewers,Bowman,34.197833,-83.024694,#N/A,#N/A,#N/A,#N/A,N,City of Bowman,Secondary,Secondary
13000197001,1109215,GA,13.5,13.5,Brunswick-Glynn County Academy Creek WPCP,Treatment Plant,Brunswick,31.1675,-81.5032,Glynn,#N/A,03070203,Cumberland-St. Simons,N,"Glynn County, BGJWSC",Advanced,Advanced
13000222002,1109278,GA,9,12,Warner Robins Sandy Run Creek WPCP,Treatment Plant,Warner Robins,32.578624,-83.594865,#N/A,#N/A,#N/A,#N/A,N,Warner Robins,Advanced,Advanced
13000547001,1109346,GA,3,3,Cairo WPCP,Collection: Separate Sewers,Cairo,30.8687,-84.2163,Grady,#N/A,03120002,Upper Ochlockonee,N,City of Cairo,Advanced,Advanced
13000567001,1109366,GA,0.75,2.5,Cleveland WWTP,Treatment Plant,Cleveland,34.605567,-83.798015,White,#N/A,03130001,Upper Chattahoochee,N,Cleveland,Advanced,Advanced
13000626001,1109439,GA,2.225,2.225,Fort Valley WPCP,Treatment Plant,Fort Valley,32.560356,-83.874072,#N/A,#N/A,#N/A,#N/A,N,Fort Valley Utility Commission,Secondary,Secondary
13000804001,1109626,GA,0.663,0.663,Soperton WPCP,Treatment Plant,Soperton,32.364608,-82.597781,#N/A,#N/A,#N/A,#N/A,Y,Soperton,Advanced,Advanced
17000251001,1113528,IL,0.08,0.08,LENZBURG STP,Collection: Separate Sewers,Lenzburg,38.2917,-89.8233,#N/A,#N/A,#N/A,#N/A,N,"LENZBURG     ,VILLAGEOF",Secondary,Secondary
17000597001,1113876,IL,3.75,3.75,EFFINGHAM WWTP & COLLECTION SYSTEM,Collection: Combined Sewers,Effingham,39.1088,-88.5332,Effingham,#N/A,05120114,Little Wabash,N,"EFFINGHAM      ,CITYOF",Advanced,Advanced
17000721008,1114000,IL,2.3,4.2,"MWRDGC, LEMONT WRP",Treatment Plant,Lemont,41.6774,-88.0002,Cook,#N/A,07120004,Des Plaines,Y,MWRDGC,Secondary,Advanced
17001501001,1114095,IL,0.11,0.11,FARINA S.T.P,Collection: Separate Sewers,Farina,38.8317,-88.7729,#N/A,#N/A,#N/A,#N/A,N,"FARINA, VILLAGE OF",Advanced,Advanced
17006911001,1114288,IL,0.08,0.08,ALTONA STP,Collection: Separate Sewers,Altona,41.114602,-90.16325,#N/A,#N/A,#N/A,#N/A,Y,"ALTONA, VILLAGE OF",Secondary,Secondary
17007200001,1114306,IL,0.09,0.09,ALBERS STP,Treatment Plant,Albers,38.5435,-89.6102,#N/A,#N/A,#N/A,#N/A,N,"ALBERS, VILLAGE OF",Secondary,Advanced
17007712001,1114375,IL,0.1,0.1,DAKOTA STP,Treatment Plant,Dakota,42.38467,-89.51518,Stephenson,#N/A,07090003,Pecatonica,N,"DAKOTA STP, VILLAGE OF",Secondary,Secondary
17007813001,1114383,IL,0.132,0.132,"KIRKWOOD, STP",Treatment Plant,Kirkwood,40.8653,-90.7541,#N/A,#N/A,#N/A,#N/A,N,"KIRKWOOD, VILLAGE OF",Secondary,Secondary
18000328001,1120166,IN,24,24,TERRE HAUTE WWTP,Collection: Combined Sewers,Terre Haute,39.4289,-87.4319,Vigo,#N/A,05120111,Middle Wabash-Busseron,N,TERRE HAUTE BOARD OF PW & S,Advanced,Advanced
18002110001,1120270,IN,7,7,LAPORTE WWTP,Treatment Plant,La Porte,41.5855,-86.6803,La Porte,#N/A,07120001,Kankakee,N,"LAPORTE, CITY OF",Advanced,Advanced
18004874001,1120435,IN,1.8,1.8,LAGRANGE WWTP,Treatment Plant,Lagrange,41.6513,-85.4133,#N/A,#N/A,#N/A,#N/A,Y,"LA GRANGE, TOWN OF",Advanced,Advanced
19000050001,1123497,IA,0.032,0.032,AURORA STL,Collection: Separate Sewers,Aurora,42.6094,-91.7372,#N/A,#N/A,#N/A,#N/A,Y,AURORA CITY OF,Secondary,Secondary
19000259001,1123676,IA,0.626,0.626,EDDYVILLE WWTP,Collection: Separate Sewers,Eddyville,41.1392,-92.6175,Wapello,#N/A,07100009,Lower Des Moines,Y,"EDDYVILLE, CITY OF",Secondary,Advanced
19000403001,1123797,IA,0.39,0.39,IDA GROVE WWTP,Treatment Plant,Ida Grove,42.3469,-95.4828,#N/A,#N/A,#N/A,#N/A,Y,"IDA GROVE, CITY OF",Advanced,Advanced
19000432001,1123826,IA,0.03,0.03,KESWICK-RUSS,Treatment Plant,Keswick,41.467,-92.2391,#N/A,#N/A,#N/A,#N/A,N,"KESWICK, CITY OF",Secondary,Secondary
19000511001,1123900,IA,0.042,0.042,MCCAUSLAND WWTP,Treatment Plant,Mc Causland,41.7498,-90.4432,#N/A,#N/A,#N/A,#N/A,Y,"MCCAUSLAND, TOWN OF",Secondary,Secondary
22001430001,1168280,LA,3,3,WEST MONROE REG STP,Treatment Plant,West Monroe,32.4588,-92.1485,#N/A,#N/A,#N/A,#N/A,N,WEST MONROE CITY OF,Advanced,Advanced
49000152001,1170498,UT,0.2,0.2,LONG VALLEY SID,Collection: Separate Sewers,Hurricane,37.3178,-112.5964,Kane,#N/A,14010005,Colorado Headwaters-Plateau,Y,LONG VALLEY SID,Secondary,Secondary
49000179001,1170522,UT,0.13,0.13,MANILA,Treatment Plant,Manila,40.9881,-109.7219,Uintah,#N/A,14040106,Upper Green-Flaming Gorge Reservoir,Y,Town of Manila,Secondary,Secondary
40000115001,1172526,OK,8,8,EDMOND COFFEE CREEK WWT,Treatment Plant,Edmond,35.6738,-97.3852,#N/A,#N/A,#N/A,#N/A,N,EDMOND PWA,Advanced,Advanced
40000492001,1172724,OK,0.34,0.72,STIGLER MA WWT,Treatment Plant,Stigler,35.2661,-95.1462,Haskell,#N/A,11090204,Lower Canadian,Y,STIGLER MUNICIPAL AUTHORITY,Secondary,Advanced
40000495001,1172726,OK,0.032,0.032,DUSTIN PWA WWT,Collection: Separate Sewers,Dustin,35.2675,-96.0267,#N/A,#N/A,#N/A,#N/A,N,DUSTIN PUBLIC WORKS AUTHORITY,Secondary,Secondary
40000599001,1172781,OK,0.65,0.65,PURCELL WWT,Collection: Separate Sewers,Purcell,34.9957,-97.3533,#N/A,#N/A,#N/A,#N/A,Y,"PURCELL, CITY OF",Secondary,Secondary
40000650001,1172804,OK,0.065,0.065,BOYNTON PWA WWT,Treatment Plant,Boynton,35.65231,-95.644698,Muskogee,#N/A,11110101,Polecat-Snake,N,BOYNTON PUBLIC WORKS AUTHORITY,Secondary,Secondary
40000669001,1172816,OK,0.039,0.039,LENAPAH PWA WWT,Treatment Plant,Lenapah,36.8475,-95.6272,Nowata,#N/A,11070103,Middle Verdigris,N,LENAPAH PWA,Secondary,Secondary
06001082001,1175233,CA,1.4,1.4,HEALDSBURG WWTF,Treatment Plant,Healdsburg,38.5824,-122.8695,Sonoma,#N/A,18010110,Russian,N,"HEALDSBURG, CITY OF",Advanced,Advanced
06002033001,1175290,CA,15.4,15.4,NAPA SANIT. DIST WWRF,Treatment Plant,Napa,38.2356096,-122.2843624,Napa,#N/A,18050002,San Pablo Bay,N,Napa Sanitation District,Secondary,Secondary
06003053001,1175421,CA,1,1,MONTECITO WWTF,Collection: Separate Sewers,Santa Barbara,34.4208504,-119.650533,Santa Barbara,#N/A,18060013,Santa Barbara Coastal,Y,Montecito Sanitary District,Secondary,Secondary
06003060001,1175427,CA,9,9,South County Regional Wastewater Treatment and Reclamation Facility,Treatment Plant,Gilroy,36.9890709,-121.5344416,Santa Clara,#N/A,18060002,Pajaro,N,South County Regional Wastewater Authority,Advanced,Advanced
06005074001,1175592,CA,0.06,0.06,Snelling WWTF,Collection: Separate Sewers,Snelling,37.5194,-120.4522,#N/A,#N/A,#N/A,#N/A,N,Snelling Community Services District,Secondary,Secondary
06005780001,1175851,CA,0.1,0.07,BIEBER WWTF,Collection: Separate Sewers,Bieber,41.121754,-121.142184,Lassen,#N/A,18020002,Upper Pit,Y,Lassen Co. Waterworks District #1,Secondary,Secondary
06007019001,1175928,CA,0.375,0.375,WESTMORLAND WWTF,Collection: Separate Sewers,Westmorland,33.0323,-115.6301,#N/A,#N/A,#N/A,#N/A,Y,"Westmorland, City of",Advanced,Advanced
06007041001,1175940,CA,0.08,0.08,RIPLEY WWTF,Collection: Separate Sewers,Palo Verde,33.9781,-117.3739,#N/A,#N/A,#N/A,#N/A,N,RIVERSIDE CO SER AREA 62,Secondary,Secondary
46000105001,1179203,SD,9.8,14.1,Rapid City ,Collection: Separate Sewers,Rapid City,44.0235,-103.0962,Pennington,#N/A,10120110,Rapid,N,"RAPID CITY, CITY OF",Advanced,Advanced
48002141001,1183164,TX,0.2,0.2,Knox City WWTP,Collection: Separate Sewers,Knox City,33.4238,-99.823,#N/A,#N/A,#N/A,#N/A,N,CITY OF KNOX CITY,Secondary,Secondary
48003011003,1183176,TX,2.5,2.5,South WWTP - Copperas Cove,Collection: Separate Sewers,Copperas Cove,31.1209,-97.9033,#N/A,#N/A,#N/A,#N/A,N,CITY OF COPPERAS COVE,Secondary,Secondary
48003056001,1183215,TX,0.378,0.378,Itasca WWTP,Collection: Separate Sewers,Itasca,32.1599,-97.1504,#N/A,#N/A,#N/A,#N/A,N,CITY OF ITASCA,Secondary,Secondary
48003081001,1183231,TX,0.7,0.7,North Plant - Giddings,Treatment Plant,Giddings,30.1946,-96.9508,#N/A,#N/A,#N/A,#N/A,N,CITY OF GIDDINGS,Secondary,Secondary
48003083001,1183234,TX,0.12,0.12,Gorman WWTP,Collection: Separate Sewers,Gorman,32.2018,-98.6842,#N/A,#N/A,#N/A,#N/A,N,CITY OF GORMAN,Secondary,Secondary
48005002001,1183563,TX,0.9,0.9,Hooks WWTP,Collection: Separate Sewers,Hooks,33.4774,-94.2529,#N/A,#N/A,#N/A,#N/A,N,CITY OF HOOKS,Secondary,Secondary
48005056001,1183609,TX,0.1,0.1,Como WWTP,Collection: Separate Sewers,Como,33.0544,-95.4826,#N/A,#N/A,#N/A,#N/A,N,CITY OF COMO,Secondary,Secondary
48005080002,1183630,TX,0.26,0.26,Jim's Bayou WWTP,Treatment Plant,Linden,32.994472,-94.375611,#N/A,#N/A,#N/A,#N/A,N,CITY OF LINDEN,Secondary,Secondary
48006009004,1183679,TX,0.099,0.099,Walnut Cove WWTP,Collection: Separate Sewers,Willis,30.454953,-95.540253,#N/A,#N/A,#N/A,#N/A,N,WALNUT COVE WSC,Secondary,Secondary
48006044001,1183707,TX,0.2,0.25,HEMPHILL STP,Treatment Plant,Hemphill,31.3715,-93.7907,#N/A,#N/A,#N/A,#N/A,N,HEMPHILL,Secondary,Secondary
48007006001,1183775,TX,4,4,CLUTE WWTP,Collection: Separate Sewers,Clute,29.0155,-95.3907,#N/A,#N/A,#N/A,#N/A,N,CITY OF CLUTE,Secondary,Secondary
48007056001,1183876,TX,2,2,West University Place WWTP,Collection: Separate Sewers,Houston,29.6967,-95.421,#N/A,#N/A,#N/A,#N/A,N,CITY OF WEST UNIVERSITY PLACE,Secondary,Secondary
48007136001,1183950,TX,0.15,0.15,Quail Forest WWTP,Treatment Plant,Houston,29.9877,-95.628,#N/A,#N/A,#N/A,#N/A,N,GRANT ROAD PUD,Secondary,Secondary
48007208001,1184001,TX,0.69,0.69,Cypress Hill WWTP,Collection: Separate Sewers,Cypress,29.9813,-95.7008,#N/A,#N/A,#N/A,#N/A,N,CYPRESS HILL MUD 1,Secondary,Secondary
48007773001,1184264,TX,0.4,0.4,Autumn Meadow Lane WWTP,Treatment Plant,Houston,29.9204,-95.5791,#N/A,#N/A,#N/A,#N/A,N,WHITE OAK BEND MUD,Secondary,Secondary
48007814001,1184283,TX,0.15,0.15,La Salle Crossing WWTP,Treatment Plant,Conroe,30.3499,-95.5463,#N/A,#N/A,#N/A,#N/A,N,MONTGOMERY COUNTY MUD NO. 42,Secondary,Secondary
51000013013,1192597,VA,2,2.62,CONAWAY WWTP & INTERCEPTOR SYS,Collection: Separate Sewers,Vansant,37.177061,-82.138221,Buchanan,#N/A,05070202,Upper Levisa,N,Buchanan County PSA,Advanced,Advanced
51000059001,1192649,VA,1.6,1.6,LURAY S T P,Treatment Plant,Luray,38.684558,-78.458819,#N/A,#N/A,#N/A,#N/A,Y,Town of Luray,Advanced,Advanced
51000299002,1192923,VA,0.08,0.08,MADISON REGIONAL STP,Collection: Pump Stations,Madison,38.38787,-78.24016,Madison,#N/A,02080103,Rapidan-Upper Rappahannock,N,Rapidan Service Authority,Secondary,Secondary
42005124001,1196621,PA,2.01,2.01,DUQUESNE STP,Treatment Plant,Duquesne,40.37273,-79.8468,Allegheny,#N/A,05020005,Lower Monongahela,N,DUQUESNE SAN AUTH,Secondary,Secondary
55001560001,1206227,WI,0.192,0.192,ELK MOUND WWTP,Treatment Plant,Elk Mound,44.870139,-91.693333,Dunn,#N/A,07050005,Lower Chippewa,Y,ELK MOUND VILLAGE,Secondary,Secondary
55003656001,1206528,WI,0.487,0.8,PADDOCK LAKE STP,Collection: Separate Sewers,Salem,42.5808,-88.0928,#N/A,#N/A,#N/A,#N/A,Y,"PADDOCK LAKE, VILLAGE OF",Advanced,Advanced
55004550001,1206637,WI,0.375,0.375,SPOONER WWTP,Treatment Plant,Spooner,45.8153,-91.9111,#N/A,#N/A,#N/A,#N/A,Y,"SPOONER, CITY OF",Secondary,Secondary
55009502001,1206860,WI,0.163,0.163,MADELINE SD - STP,Collection: Separate Sewers,La Pointe,46.790572,-90.755356,#N/A,#N/A,#N/A,#N/A,Y,Madeline Sanitary District,Secondary,Advanced
24000013001,1214176,MD,20,20,SOD RUN WWTP,Treatment Plant,Aberdeen,39.427061,-76.219862,Harford,#N/A,02060003,Gunpowder-Patapsco,N,HARFORD COUNTY DEPT.OF PUB.WKS,Advanced,Advanced
24000023001,1214243,MD,0.1,0.1,CECILTON WWTP,Treatment Plant,Cecilton,39.4092,-75.8651,Cecil,#N/A,02060002,Chester-Sassafras,N,TOWN OF CECILTON,Secondary,Advanced
24000098001,1214428,MD,0.2,0.2,BETTERTON WWTP,Collection: Separate Sewers,Betterton,39.3672,-76.0587,#N/A,#N/A,#N/A,#N/A,N,"BETTERTON, TOWN OF",Advanced,Advanced
36003111001,1220544,NY,0.12,0.12,Jeffersonville (V) - Jefferson. STP,Treatment Plant,Jeffersonville,41.765472,-74.941972,#N/A,#N/A,#N/A,#N/A,Y,"JEFFERSONVILLE, VILLAGE OF",Secondary,Secondary
53001385001,1180955,WA,2.24,2.24,WASHOUGAL S/T FACILITY,Biosolids Handling Facility,Washougal,45.5707,-122.3276,Clark,#N/A,17080001,Lower Columbia-Sandy,N,WASHOUGAL CITY OF,Secondary,Secondary
53001760001,1181001,WA,0.018,0.018,FARMINGTON STP,Treatment Plant,Farmington,47.08,-117.041,#N/A,#N/A,#N/A,#N/A,Y,FARMINGTON CITY OF,Secondary,Secondary
53002365001,1181058,WA,0.03,0.03,STEPTOE SEWER DISTRICT 1,Treatment Plant,Steptoe,47.000549,-117.355461,#N/A,#N/A,#N/A,#N/A,Y,Steptoe Sewer District,Primary,Primary
48002002001,1183106,TX,0.75,0.75,Olmito WWTP,Treatment Plant,Olmito,26.0455,-97.506,#N/A,#N/A,#N/A,#N/A,N,OLMITO WSC,Secondary,Secondary
48004122001,1183431,TX,166,191,Village Creek Water Reuse Facility,Treatment Plant,Arlington,32.779848,-97.143936,Tarrant,#N/A,12030102,Lower West Fork Trinity,N,Fort Worth,Advanced,Advanced
48004219002,1183473,TX,0.224,0.224,South Plant - Nocona,Collection: Separate Sewers,Nocona,33.7751,-97.7217,#N/A,#N/A,#N/A,#N/A,N,CITY OF NOCONA,Secondary,Secondary
48005062001,1183613,TX,0.048,0.048,Dodd City WWTP,Collection: Separate Sewers,Dodd City,33.569658,-96.068895,#N/A,#N/A,#N/A,#N/A,N,CITY OF DODD CITY,Secondary,Secondary
48005101001,1183649,TX,0.3,0.3,Van WWTP,Collection: Separate Sewers,Van,32.5092,-95.632,#N/A,#N/A,#N/A,#N/A,N,CITY OF VAN,Secondary,Secondary
48007012002,1183782,TX,3.1,8.53,Longwood WWTP,Treatment Plant,Pearland,29.5569,-95.2164,Galveston,#N/A,12040204,West Galveston Bay,N,PEARLAND,Secondary,Secondary
48007039076,1183846,TX,13.34,13.34,Beltway Regional WWTP,Collection: Separate Sewers,Houston,29.7077,-95.5671,Harris,#N/A,12040104,Buffalo-San Jacinto,N,Houston,Secondary,Secondary
48007039091,1183856,TX,18,18,Upper Brays Regional WWTP,Collection: Separate Sewers,Houston,29.71676,-95.5922,Harris,#N/A,12040104,Buffalo-San Jacinto,N,Houston,Secondary,Secondary
48007049001,1183870,TX,6,6,Seabrook WWTP,Collection: Separate Sewers,Seabrook,29.5653,-95.0194,#N/A,#N/A,#N/A,#N/A,N,CITY OF SEABROOK,Secondary,Secondary
48007052001,1183873,TX,0.21,0.247,Southside Place WWTP,Treatment Plant,Houston,29.7044,-95.4333,#N/A,#N/A,#N/A,#N/A,N,SOUTHSIDE PLACE,Secondary,Secondary
48007105001,1183926,TX,0.84,0.84,Eastex Freeway WWTP,Collection: Separate Sewers,Houston,29.8992,-95.3219,#N/A,#N/A,#N/A,#N/A,N,HARRIS COUNTY WCID NO. 74,Secondary,Secondary
48007126001,1183941,TX,0.175,0.38,Pin Oak Village WWTP,Collection: Separate Sewers,Houston,29.7574,-95.8188,#N/A,#N/A,#N/A,#N/A,N,FORT BEND COUNTY MUD #37,Secondary,Secondary
48007707001,1184228,TX,1.5,1.5,Mill Ridge WWTP,Collection: Separate Sewers,Houston,29.639,-95.4442,#N/A,#N/A,#N/A,#N/A,N,NORTHWEST HARRIS CO. MUD NO. 9,Secondary,Secondary
48007828001,1184290,TX,0.084,0.084,Splendora WWTP,Collection: Separate Sewers,Splendora,30.2366,-95.1599,#N/A,#N/A,#N/A,#N/A,N,CITY OF SPLENDORA WWTF,Secondary,Secondary
48007847001,1184301,TX,1.1,0.518,North Spring WWTP,Treatment Plant,Spring,30.0627,-95.378,#N/A,#N/A,#N/A,#N/A,N,HARRIS COUNTY MUD NO. 82,Secondary,Secondary
48008029001,1184375,TX,9.87,9.87,San Marcos  WWTP,Collection: Separate Sewers,San Marcos,29.86615,-97.925294,#N/A,#N/A,#N/A,#N/A,N,CITY OF SAN MARCOS,Secondary,Secondary
08000186001,1066979,CO,2,2,"Trinidad, City of",Collection: Separate Sewers,Trinidad,37.1875,-104.492222,Las Animas,#N/A,11020010,Purgatoire,N,"GMS, Inc. Consulting Engineers",Advanced,Advanced
08000235001,1067025,CO,0.081,0.081,STRATTON WWTP,Collection: Separate Sewers,Stratton,39.3056,-102.5933,Kit Carson,#N/A,10250003,South Fork Republican,N,"STRATTON, TOWN OF",Secondary,Secondary
04002501002,1069612,AZ,0.007,0.007,Seligman WWTF,Collection: Separate Sewers,Prescott,35.2475,-112.6258,#N/A,#N/A,#N/A,#N/A,N,YAVAPAI CSD,Secondary,Secondary
34001030001,1073301,NJ,85,85,Joint Meeting of Essex & Union - CSO/STP,Treatment Plant,Elizabeth,40.64039588,-74.20184723,Union,#N/A,02030104,Sandy Hook-Staten Island,N,Joint Meeting of Essex and Union Counties,Advanced,Advanced
12000065002,1078188,FL,5,5,Clearwater East WRF,Treatment Plant,Clearwater,27.960556,-82.706389,Pinellas,#N/A,03100207,Crystal-Pithlachascotee,N,"CLEARWATER,CITY OF",Advanced,Advanced
12000098001,1078235,FL,5.5,5.5,BCUD/SOUTH CENTRAL Regional WWTF,Water Reuse,Melbourne,28.2294,-80.7486,Brevard,#N/A,03080101,Upper St. Johns,N,Brevard County,Advanced,Advanced
12000237001,1078379,FL,0.33,0.33,BOWLING GREEN STP,Collection: Separate Sewers,Bowling Green,27.6278,-81.8164,#N/A,#N/A,#N/A,#N/A,N,City of Bowling Green,Advanced,Advanced
12000244001,1078384,FL,1.5,1.5,SEBRING Cemetery Road WWTP,Collection: Separate Sewers,Sebring,27.5078,-81.4206,Highlands,#N/A,03090101,Kissimmee,N,Sebring,Advanced,Advanced
39000100001,1080523,OH,0.43,0.43,Commercial Point WWTP & Sewers,Collection: Separate Sewers,Commercial Point,39.7747,-83.0078,#N/A,#N/A,#N/A,#N/A,Y,"COMMERCIAL POINT, VILLAGE",Advanced,Advanced
39000108001,1080530,OH,0.1,0.1,Kirkersville WWTP & Sewer System,Treatment Plant,Kirkersville,39.9609,-82.5894,Licking,#N/A,05040006,Licking,Y,VILLAGE OF KIRKERSVILLE,Secondary,Secondary
39000286001,1080700,OH,0.16,0.16,Pioneer WWTP & Sewer System,Treatment Plant,Pioneer,41.679,-84.5595,#N/A,#N/A,#N/A,#N/A,Y,VILLAGE OF PIONEER,Secondary,Secondary
39002961001,1081056,OH,0.5,0.5,Garrettsville WWTP & Sewer System,Collection: Separate Sewers,Garrettsville,41.2839,-81.089,#N/A,#N/A,#N/A,#N/A,Y,VILLAGE OF GARRETTSVILLE,Advanced,Advanced
39002969005,1081062,OH,0.08,0.08,Geauga Co Russell Park WWTP,Treatment Plant,Chagrin Falls,41.4698,-81.35062,#N/A,#N/A,#N/A,#N/A,Y,Geauga County Department of Water Resources,Advanced,Advanced
39006553001,1081459,OH,0.08,0.08,Perry Co Crown Wehrle Estates WWTP,Collection: Separate Sewers,Thornville,39.7739,-82.1029,#N/A,#N/A,#N/A,#N/A,N,PERRY COUNTY COMMISSIONERS,Advanced,Advanced
39006867001,1081496,OH,0.5,0.5,Put-in-Bay WWTP & Sewer System,Collection: Separate Sewers,Put In Bay,41.650081,-82.818616,Ottawa,#N/A,04100010,Cedar-Portage,Y,Village of Put-in-Bay,Secondary,Secondary
26000342001,1088480,MI,6.67,6.67,GRAND HAVEN STP,Collection: Separate Sewers,Grand Haven,43.0612,-86.2054,#N/A,#N/A,#N/A,#N/A,N,GRANDHAVEN - SPRINGLAKE,Advanced,Advanced
26003077001,1088883,MI,0.32,0.32,JONESVILLE STP,Collection: Separate Sewers,Jonesville,41.9927,-84.6683,#N/A,#N/A,#N/A,#N/A,N,"JONESVILLE, VILLAGE OF",Advanced,Advanced
50000070002,1094122,VT,1.25,1.25,Bartlet Bay WWTF,Collection: Pump Stations,South Burlington,44.428179,-73.214747,Chittenden,#N/A,02010008,Lake Champlain,N,"South Burlington, City of",Advanced,Advanced
54001710001,1094847,WV,0.6,0.6,SALEM WWTP,Collection: Combined Sewers,Salem,39.2905,-80.5282,Harrison,#N/A,05020002,West Fork,Y,SALEM CITY OF,Advanced,Advanced
54002603001,1094996,WV,0.03,0.03,LEON WWTP,Treatment Plant,Leon,38.7528,-81.9642,#N/A,#N/A,#N/A,#N/A,Y,"LEON, TOWN OF",Secondary,Secondary
54004305001,1095224,WV,0.35,0.35,PENNSBORO WWTP,Collection: Pump Stations,Pennsboro,39.2765,-80.9873,Ritchie,#N/A,05030203,Little Kanawha,Y,City of Pennsboro,Secondary,Secondary
33000129001,1100997,NH,0.75,0.75,Gorham WWTF,Collection: Pump Stations,Gorham,44.38759,-71.16751,Coos,#N/A,01040001,Upper Androscoggin,Y,Gorham Water & Sewer Commission,Secondary,Secondary
01000003001,1101826,AL,7.6,7.6,ALABASTER WWTP,Collection: Separate Sewers,Alabaster,33.2534,-86.8154,Shelby,#N/A,03150202,Cahaba,N,City of Alabaster,Advanced,Advanced
02000416001,1104843,AK,0.03,0.03,Nondalton Lagoon,Collection: Separate Sewers,Nondalton,59.973269,-154.846544,#N/A,#N/A,#N/A,#N/A,N,"Nondalton, Village of",Secondary,Secondary
05000022001,1104890,AR,3.5,3.5,Stuttgart WWTP,Treatment Plant,Stuttgart,34.4924,-91.5677,Arkansas,#N/A,08020402,Bayou Meto,Y,Stuttgart,Advanced,Advanced
37008801001,1153741,NC,2.5,2.5,BREVARD WWTP,Treatment Plant,Pisgah Forest,35.2262,-82.7298,Transylvania,#N/A,06010105,Upper French Broad,N,"BREVARD, TOWN OF",Secondary,Secondary
45000192004,1157091,SC,2,3.5,"City of Clemson, Pendleton/Clemson WWTP",Treatment Plant,Pendleton,34.6372,-82.8033,Anderson,#N/A,03060101,Seneca,N,PENDLETON-CLEMSON REG. WWTF,Advanced,Advanced
45000251001,1157143,SC,60,60,METRO WWTP,Collection: Pump Stations,Columbia,33.9378,-81.0178,Richland,#N/A,03050110,Congaree,N,"COLUMBIA, CITY OF",Advanced,Advanced
48004205002,421507,TX,0.12,0.12,New Boyd WWTP,Treatment Plant,Bonham,33.667925,-96.182899,#N/A,#N/A,#N/A,#N/A,N,BOYD,Secondary,Secondary
72000004012,424376,PR,1.5,1.5,Maricao WWTP,Treatment Plant,Maricao,18.187368,-66.994251,Maricao,#N/A,21010003,Culebrinas-Guanajibo,N,PRASA,Secondary,Secondary
56000500001,479021,WY,0.5,0.5,WRIGHT LAGOON,Treatment Plant,Wright,43.7619,-105.4998,Campbell,#N/A,10120201,Upper Belle Fourche,N,"Wright, Town of",Secondary,Secondary
12000126024,484627,FL,3,6,Gateway Services District 1 WWTP,Collection: Separate Sewers,Fort Myers,26.5736,-81.7349,Lee,#N/A,03090204,Big Cypress Swamp,N,Lee County Utilities,Advanced,Advanced
08000075001,1066879,CO,2.68,2.733,STERLING WWTP,Collection: Interceptor Sewers,Sterling,40.66889,-103.1328,Logan,#N/A,10190012,Middle South Platte-Sterling,N,"STERLING, CITY OF",Advanced,Advanced
08000353001,1067134,CO,0.01,0.01,PAOLI LAGOON,Treatment Plant,Paoli,40.61265908,-102.4723014,#N/A,#N/A,#N/A,#N/A,N,TOWN OF PAOLI,Secondary,Secondary
08000380001,1067146,CO,0.075,0.075,LARKSPUR LAGOON,Biosolids Handling Facility,Larkspur,39.22978,-104.88115,Douglas,#N/A,10190003,Middle South Platte-Cherry Creek,N,"LARKSPUR, TOWN OF",Secondary,Secondary
08000500041,1067179,CO,0.03,0.03,NORTH LAMAR SAN DIST,Collection: Separate Sewers,Lamar,38.1139,-102.6217,Prowers,#N/A,11020009,Upper Arkansas-John Martin Reservoir,N,NORTH LAMAR SAN DIST,Secondary,Secondary
17000626001,1113900,IL,3.5,3.5,"PONTIAC, City of",Treatment Plant,Pontiac,40.877,-88.646,Livingston,#N/A,07130002,Vermilion,N,"PONTIAC      ,CITYOF",Advanced,Advanced
17000721007,1113999,IL,333,333,"MWRDGC, NORTHSIDE (Terrence O'Brien) WRP",Collection: Interceptor Sewers,Skokie,42.0191,-87.7163,Cook,#N/A,07120004,Des Plaines,N,MWRDGC,Advanced,Advanced
17005302002,1114210,IL,0.19,0.19,GREENUP STP,Collection: Separate Sewers,Greenup,39.2461,-88.1684,#N/A,#N/A,#N/A,#N/A,N,"GREENUP, VILLAGE OF",Secondary,Secondary
17007208001,1114313,IL,0.13,0.13,BECKEMEYER STP,Collection: Separate Sewers,Beckemeyer,38.6058,-89.4348,#N/A,#N/A,#N/A,#N/A,N,"BECKEMEYER, VILLAGE OF",Secondary,Secondary
17007715001,1114377,IL,0.08,0.08,DAVIS STP,Treatment Plant,Davis,42.4083,-89.435,#N/A,#N/A,#N/A,#N/A,N,"DAVIS, VILLAGE OF",Secondary,Secondary
18004613001,1120383,IN,2,2,CORYDON STP,Treatment Plant,Corydon,38.2098,-86.1312,Harrison,#N/A,05140104,Blue-Sinking,Y,"CORYDON, TOWN OF",Advanced,Advanced
18004856001,1120426,IN,0.1,0.1,SILVER LAKE WWTP,Treatment Plant,Silver Lake,41.0718,-85.9058,#N/A,#N/A,#N/A,#N/A,Y,"SILVERLAKE, TOWN OF",Secondary,Secondary
18005751001,1120508,IN,0.066,0.066,CAMPBELLSBURG WWTP,Collection: Separate Sewers,Campbellsburg,38.6591,-86.3104,#N/A,#N/A,#N/A,#N/A,Y,"CAMPBELLSBURG, town of",Secondary,Secondary
19000059001,1123504,IA,0.021,0.021,BARNES CITY STL,Collection: Separate Sewers,Barnes City,41.5159,-92.4585,#N/A,#N/A,#N/A,#N/A,Y,BARNES CITY CITY OF,Secondary,Secondary
19000120001,1123552,IA,0.271,0.271,CAMBRIDGE STL,Treatment Plant,Cambridge,41.8961,-93.5194,#N/A,#N/A,#N/A,#N/A,Y,CAMBRIDGE CITY OF,Secondary,Advanced
19000218001,1123637,IA,0.103,0.103,DELHI STL,Collection: Separate Sewers,Delhi,42.4192,-91.329,#N/A,#N/A,#N/A,#N/A,Y,"DELHI      ,CITYOF",Secondary,Secondary
19000443001,1123836,IA,0.081,0.081,LACONA WWTP,Treatment Plant,Lacona,41.1836,-93.3815,#N/A,#N/A,#N/A,#N/A,Y,LACONA TOWN OF,Secondary,Secondary
19000566001,1123948,IA,0.082,0.082,MILTON WWTP,Collection: Separate Sewers,Milton,40.6792,-92.1631,#N/A,#N/A,#N/A,#N/A,Y,"MILTON, TOWN OF",Secondary,Secondary
19000595001,1123977,IA,0.37,0.37,MOVILLE WWTP,Treatment Plant,Moville,42.4719,-96.0919,Woodbury,#N/A,10230004,Monona-Harrison Ditch,Y,"MOVILLE      ,TOWNOF",Secondary,Advanced
19000695001,1124061,IA,0.867,0.867,POSTVILLE WWTP,Treatment Plant,Postville,43.0914,-91.5592,#N/A,#N/A,#N/A,#N/A,Y,POSTVILLE CITY OF,Secondary,Secondary
19000816001,1124161,IA,0.02,0.02,STANLEY STL,Collection: Separate Sewers,Stanley,42.6419,-91.8208,#N/A,#N/A,#N/A,#N/A,Y,"STANLEY, CITY OF",Secondary,Secondary
19000882001,1124222,IA,0.034,0.034,VOLGA CITY WWTP,Collection: Separate Sewers,Volga,42.8042,-91.5303,#N/A,#N/A,#N/A,#N/A,Y,"VOLGA, CITY OF",Secondary,Secondary
16000005002,1128551,ID,17.5,20.1,"BOISE, CITY OF--WEST BOISE",Collection: Separate Sewers,Boise,43.6682,-116.3306,Ada,#N/A,17050114,Lower Boise,N,"BOISE, CITY OF",Advanced,Advanced
16000011001,1128558,ID,9.3,17.7,MERIDIAN STP,Collection: Separate Sewers,Meridian,43.6359,-116.4337,Ada,#N/A,17050114,Lower Boise,N,CITY OF MERIDIAN - WASTEWATER TREATMENT PLANT,Secondary,Advanced
16000058001,1128607,ID,13,13,S FRK COEUR D ALENE RVR SD-PAGE,Collection: Separate Sewers,Smelterville,47.5413,-116.2026,Shoshone,#N/A,17010302,South Fork Coeur D'alene,N,S Fork CDA River Sewer District,Advanced,Advanced
16000064001,1128614,ID,0.45,0.45,BONNERS FERRY S/T PLANT,Collection: Separate Sewers,Bonners Ferry,48.6956,-116.3035,Boundary,#N/A,17010104,Lower Kootenai,Y,"BONNERS FERRY, CITY OF",Secondary,Secondary
16000143001,1128673,ID,0.125,0.125,HANSEN STP,Treatment Plant,Hansen,42.5349,-114.3096,#N/A,#N/A,#N/A,#N/A,Y,CITY OF HANSEN,Secondary,Secondary
20001128001,1130518,KS,0.035,0.035,MCCRACKEN WWTP,Treatment Plant,Mc Cracken,38.58533,-99.56981,#N/A,#N/A,#N/A,#N/A,N,"MCCRACKEN, CITY OF",Secondary,Secondary
20001130001,1130520,KS,0.022,0.022,RAMONA WWTP,Treatment Plant,Ramona,38.6067,-97.0592,#N/A,#N/A,#N/A,#N/A,N,RAMONA CITY OF,Secondary,Secondary
51000073001,1192659,VA,0.035,0.035,VIRGILINA STP,Treatment Plant,Virgilina,36.544141,-78.774921,#N/A,#N/A,#N/A,#N/A,N,Town of Virgilina,Secondary,Secondary
51000094001,1192678,VA,3.75,3.75,COURTLAND STP,Treatment Plant,Courtland,36.674166,-77.043055,#N/A,#N/A,#N/A,#N/A,N,Southampton County,Secondary,Secondary
51000133001,1192711,VA,0.6,0.6,KENBRIDGE STP,Treatment Plant,Kenbridge,36.9577,-78.1144,#N/A,#N/A,#N/A,#N/A,N,Town of Kenbridge,Advanced,Advanced
51000226001,1192851,VA,5.3,5.3,FRONT ROYAL STP,Collection: Separate Sewers,Front Royal,38.9354,-78.1858,Warren,#N/A,02070005,South Fork Shenandoah,N,Town of Front Royal,Advanced,Advanced
51000275001,1192900,VA,3,3,LEX. ROCK. REGIONAL WQCF,Treatment Plant,Lexington,37.795135,-79.414588,#N/A,#N/A,#N/A,#N/A,N,City of Lexington,Advanced,Advanced
42000068001,1195405,PA,6.5,6.5,AMBLER BORO STP,Collection: Separate Sewers,Ambler,40.1621,-75.2113,#N/A,#N/A,#N/A,#N/A,N,AMBLER BORO,Advanced,Advanced
42003071001,1196045,PA,1.7,1.7,NORTHEASTERN YORK MT WOLF STP,Collection: Pump Stations,Mount Wolf,40.0634,-76.7084,York,#N/A,02050306,Lower Susquehanna,N,NORTHEASTERN YORK CO SEW AUTH,Advanced,Advanced
42004111001,1196336,PA,0.54,0.54,PATTON BORO STP,Treatment Plant,Patton,40.6287,-78.6472,Cambria,#N/A,02050201,Upper West Branch Susquehanna,N,PATTON BOROUGH,Advanced,Advanced
55000445001,1206077,WI,0,0.15,Buffalo City - WWTP,Treatment Plant,Cochrane,44.231671,-91.863899,Buffalo,#N/A,07040003,Buffalo-Whitewater,Y,"Buffalo City, City of",0,Secondary
55000719001,1206108,WI,0.125,0.125,BROWNSVILLE WWTP,Treatment Plant,Brownsville,43.6142,-88.4865,#N/A,#N/A,#N/A,#N/A,Y,BROWNSVILLE SEWAGE TREATMENT P,Secondary,Secondary
55002750001,1206378,WI,0.063,0.063,LYNDON STATION STP,Treatment Plant,Lyndon Station,43.70638,-89.88732,Juneau,#N/A,07070005,Lower Wisconsin,Y,"Lyndon Station, Village of",Advanced,Advanced
55003770001,1206546,WI,0.105,0.105,PLAIN STP,Collection: Separate Sewers,Plain,43.2789,-90.0402,Sauk,#N/A,07070005,Lower Wisconsin,Y,PLAIN VILLAGE OF,Secondary,Secondary
08000400002,377613,CO,0.06,0.06,North La Junta SD,Treatment Plant,La Junta,37.9989,-103.5158,Otero,#N/A,11020005,Upper Arkansas-Lake Meredith,Y,North La Junta Sanitation District,Secondary,Secondary
12000261002,398236,FL,1,1,Groveland- Sunshine Parkway WWTF,Treatment Plant,Minneola,28.6225,-81.76,Lake,#N/A,03080102,Oklawaha,N,Groveland,Advanced,Advanced
40000178007,440398,OK,0.025,0.025,SAND SPRINGS SAND CREEK WWT,Collection: Separate Sewers,Sand Springs,36.1447,-96.2175,#N/A,#N/A,#N/A,#N/A,N,"SAND SPRINGS, CITY OF",Secondary,Secondary
12000172012,485250,FL,6,6,Blacks Ford WRF,Treatment Plant,Jacksonville,30.077606,-81.584878,St. Johns,#N/A,03080103,Lower St. Johns,N,City of Jacksonville JEA,Advanced,Advanced
12000017028,491255,FL,112.5,131,MDWASD South District WWTP,Treatment Plant,Miami,25.5508,-80.3333,Miami-Dade,#N/A,03090206,Florida Southeast Coast,N,Miami-Dade Water & Sewer Department,Advanced,Advanced
08000114001,1066915,CO,2.8,4.718,WINDSOR WWTP,Treatment Plant,Windsor,40.43915,-104.873353,Weld,#N/A,10190007,Cache La Poudre,N,"WINDSOR, TOWN OF",Advanced,Advanced
08000280001,1067068,CO,0.15,0.15,EADS WWTP,Collection: Interceptor Sewers,Kiowa,38.464898,-102.769816,Kiowa,#N/A,11020012,Rush,N,"EADS, TOWN OF",Advanced,Advanced
08000327001,1067110,CO,0.03,0.03,RAMAH WWTP,Collection: Separate Sewers,Ramah,39.122603,-104.16275,El Paso,#N/A,11020011,Big Sandy,N,"RAMAH, TOWN OF",Secondary,Secondary
08000365001,1067145,CO,4.2,5.78,NORTHGLENN WWTP,Treatment Plant,Brighton,40.0003,-104.9302,Adams,#N/A,10190003,Middle South Platte-Cherry Creek,N,"NORTHGLENN, CITY OF",Advanced,Advanced
04000511001,1069368,AZ,0.7,0.7,Kachina Village WWTF,Treatment Plant,Flagstaff,35.2022,-111.5681,#N/A,#N/A,#N/A,#N/A,Y,Kachina Village Improvement District,Secondary,Secondary
04001503002,1069518,AZ,4,4,Bullhead City Section 10 WWTP,Treatment Plant,Bullhead City,35.0521,-114.6031,Mohave,#N/A,15030101,Havasu-Mohave Lakes,N,Bullhead City,Advanced,Advanced
34002065001,1073516,NJ,147,180,Middlesex County UA - CS/STP,Biosolids Handling Facility,Sayreville,40.48992273,-74.3061276,Middlesex,#N/A,02030105,Raritan,N,Middlesex County Utilities Authority,Advanced,Advanced
02000375001,1216470,AK,0.04,0.04,Nulato Lagoon,Collection: Separate Sewers,Nulato,64.733454,-158.113861,#N/A,#N/A,#N/A,#N/A,N,"Nulato, City of",Secondary,Secondary
36003010001,1220340,NY,0.5,0.5,La Grange (T) Titusville SD STP,Collection: Separate Sewers,Poughkeepsie,41.66206997,-73.79661639,#N/A,#N/A,#N/A,#N/A,N,"LA GRANGE, TOWN OF",Advanced,Advanced
36005020001,1220836,NY,1.7,1.7,Ticonderoga (T) STP,Treatment Plant,Ticonderoga,43.851845,-73.415817,Essex,#N/A,02010001,Lake George,N,Ticonderoga (T),Advanced,Advanced
36005060001,1220871,NY,0.065,0.065,Essex (T) STP,Collection: Separate Sewers,Essex,44.310917,-73.352528,#N/A,#N/A,#N/A,#N/A,Y,"ESSEX, TOWN OF",Advanced,Advanced
36006065001,1220981,NY,0.055,0.055,Port Leyden (V) WWTP & Collection System,Collection: Separate Sewers,Port Leyden,43.5831,-75.3452,Lewis,#N/A,04150101,Black,N,Port Leyden (V),Secondary,Secondary
36007026001,1221070,NY,0.15,0.15,Whitney Point (V) WWTP,Treatment Plant,Whitney Point,42.317222,-76.961389,#N/A,#N/A,#N/A,#N/A,Y,Village of Whitney Point,Secondary,Secondary
36007195001,1221175,NY,0.65,0.65,Pulaski (V) WWTP,Collection: Pump Stations,Pulaski,43.5683,-76.1388,Oswego,#N/A,04140102,Salmon-Sandy,N,"PULASKI, VILLAGE OF",Secondary,Secondary
36008055001,1221254,NY,0.304,0.304,Phelps (V) WWTP,Treatment Plant,Phelps,42.960833,-77.049444,Ontario,#N/A,04140201,Seneca,Y,Phelps (V),Secondary,Secondary
36009109001,1221458,NY,22,22,Lockport (C) WWTP and Sewers,Treatment Plant,Lockport,43.181,-78.69,Niagara,#N/A,04130001,Oak Orchard-Twelvemile,N,LOCKPORT (C),Advanced,Advanced
48001316001,1227779,TX,0.175,0.175,BATESVILLE STP,Treatment Plant,Batesville,28.966847,-99.61853,#N/A,#N/A,#N/A,#N/A,N,BATESVILLE,Secondary,Secondary
48003080001,1227816,TX,2.5,2.5,San Gabriel WWTP,Treatment Plant,Georgetown,30.649536,-97.662527,#N/A,#N/A,#N/A,#N/A,N,CITY OF GEORGETOWN,Secondary,Secondary
19000162001,1234644,IA,12,12,CLINTON WWTP,Collection: Combined Sewers,Clinton,41.8098,-90.2304,Clinton,#N/A,07080101,Copperas-Duck,N,CITY OF CLINTON,Advanced,Advanced
19000892001,1234689,IA,6.24,6.24,WASHINGTON WWTP,Collection: Separate Sewers,Washington,41.2825,-91.7067,#N/A,#N/A,#N/A,#N/A,Y,WASHINGTON CITY OF,Advanced,Advanced
37009001001,1236397,NC,12.5,12.5,MONROE WWTP,Collection: Separate Sewers,Monroe,34.9956,-80.49,Union,#N/A,03040105,Rocky,N,"MONROE, CITY OF",Advanced,Advanced
53000515001,1238899,WA,3,3,GRANDVIEW STP,Collection: Separate Sewers,Grandview,46.2134,-119.912,Yakima,#N/A,17030003,Lower Yakima,N,GRANDVIEW CITY OF,Secondary,Secondary
39000318501,2806140,OH,0.04,0.04,Bailey Lakes WWTP and Sewer System,Collection: Separate Sewers,Savannah,40.94864,-82.35904,#N/A,#N/A,#N/A,#N/A,Y,Village of Bailey Lakes,Advanced,Advanced
39000335501,2806141,OH,0.018,0.018,Amesville Cluster Sewers and WWTPs,Treatment Plant,Amesville,39.3983,-81.9653,#N/A,#N/A,#N/A,#N/A,Y,Village of Amesville,Advanced,Advanced
39008330012,2806729,OH,0.019,0.019,Trumbull Co Vienna #1 WWTP,Collection: Separate Sewers,Vienna,41.2262,-80.6403,#N/A,#N/A,#N/A,#N/A,Y,TRUMBULL CTY,Advanced,Advanced
12000102002,2846882,FL,4,4,Spencer WWTP,Treatment Plant,Orange Park,30.1717,-81.8064,Clay,#N/A,03080103,Lower St. Johns,N,Clay County Utility Authority,Advanced,Advanced
55000001671,2911022,WI,0.142,0.142,CHRISTMAS MOUNTAIN SD,Treatment Plant,Wisconsin Dells,43.6,-89.8667,#N/A,#N/A,#N/A,#N/A,Y,Christmas Mountain SD,Advanced,Advanced
36003005002,2960026,NY,0.216,0.35,"Dutchess Co, Dalton Farms WWTP",Treatment Plant,Poughquag,41.6133,-73.7011,#N/A,#N/A,#N/A,#N/A,N,Dutchess County Water & Wastewater Authority,Secondary,Secondary
34002164001,2975202,NJ,0.075,0.075,Chester Borough - CS/STP,Collection: Separate Sewers,Chester,40.79227762,-74.67162607,Morris,#N/A,02030105,Raritan,N,Chester Borough,Secondary,Secondary
48071109001,3123868,TX,0.25,0.25,Fort Bend Co MUD # 46,Collection: Separate Sewers,Houston,29.673083,-95.751917,#N/A,#N/A,#N/A,#N/A,N,FORT BEND CO MUD #46,Secondary,Secondary
39008330010,3177330,OH,0.04,0.04,Trumbull Co Bazetta #1 WWTP,Treatment Plant,Cortland,41.3189,-80.7669,#N/A,#N/A,#N/A,#N/A,Y,Trumbull County Sanitary Engineer,Advanced,Advanced
49000241001,3206268,UT,0.15,0.15,STOCKTON,Treatment Plant,Stockton,40.4434,-112.3763,Tooele,#N/A,16020310,Great Salt Lake,Y,Stockton Town,Secondary,Secondary
27044000096,3338192,MN,0.031,0.031,ORMSBY WWTF,Treatment Plant,Ormsby,43.8481,-94.6975,#N/A,#N/A,#N/A,#N/A,Y,"Ormsby, City of",Secondary,Secondary
39000194005,3376875,OH,0.16,0.16,Wayne Co Kidron WWTP & Sewers,Collection: Separate Sewers,Kidron,40.7441,-81.7267,#N/A,#N/A,#N/A,#N/A,Y,Wayne County Sanitary Engineer,Advanced,Advanced
08209000056,3500208,CO,0.1,0.1,Edgemont Ranch MD,Collection: Separate Sewers,Durango,37.3,-107.7872,#N/A,#N/A,#N/A,#N/A,Y,Edgemont Ranch Metropolitan District,Secondary,Secondary
08209000145,3501019,CO,0.3,0.3,Eastern Adams County MD,Treatment Plant,Strasburg,39.758472,-104.352278,#N/A,#N/A,#N/A,#N/A,Y,EASTERN ADAMS CO METRO DIST,Advanced,Advanced
35200900303,3514116,NM,6.3,6.3,"Farmington, City of ",Biosolids Handling Facility,Farmington,36.7235,-108.1892,San Juan,#N/A,14080104,Animas,N,City of Farmington,Advanced,Advanced
53200800110,3522936,WA,1,1,Airway Heights WWTP,Collection: Separate Sewers,Airway Heights,47.63559,-117.583015,Spokane,#N/A,17010306,Hangman,N,Airway Heights city of,Secondary,Secondary
18120000041,3525118,IN,0.03,0.03,Monterey WWTP,Collection: Separate Sewers,Monterey,41.1597,-86.4833,#N/A,#N/A,#N/A,#N/A,Y,MONTEREY MUNICIPAL WWTP,Advanced,Advanced
48000018002,3526016,TX,0.37,0.37,North Regional WWTP,Treatment Plant,Lufkin,31.3917,-94.7628,#N/A,#N/A,#N/A,#N/A,N,ANGELINA AND NECHES RIVER AUTH,Secondary,Secondary
47000180001,1165990,TN,0.572,0.572,BRUCETON WASTEWATER LAGOON,Treatment Plant,Bruceton,36.0476,-88.2264,#N/A,#N/A,#N/A,#N/A,N,Bruceton WW Lagoon,Secondary,Secondary
47000795001,1166112,TN,3,3,LENOIR CITY WWTP,Collection: Pump Stations,Lenoir City,35.791,-84.2644,Loudon,#N/A,06010201,Watts Bar Lake,N,Lenoir City Utility Board,Secondary,Secondary
47000940001,1166135,TN,90,90,Memphis S. T. E. MAXSON WWTP,Collection: Pump Stations,Memphis,35.0706,-90.1566,Shelby,#N/A,08010211,Horn Lake-Nonconnah,N,"Memphis, City of",Secondary,Secondary
47000955001,1166140,TN,5.8,5.8,Millington STP #2,Treatment Plant,Millington,35.3417,-89.941,#N/A,#N/A,#N/A,#N/A,N,"Millington, City of",Advanced,Advanced
22000620001,1168216,LA,0.33,0.33,IOWA SEWERAGE SYSTEM,Treatment Plant,Iowa,30.2422,-93.0256,#N/A,#N/A,#N/A,#N/A,N,TOWN OF IOWA,Advanced,Advanced
22001045001,1168256,LA,0.5,0.5,PEARL RIVER WWTP,Treatment Plant,Pearl River,30.3657,-89.755,#N/A,#N/A,#N/A,#N/A,N,"PEARL RIVER, TOWN OF",Advanced,Advanced
22001195001,1168266,LA,0.3,0.4,ST FRANCISVILLE WWTP,Collection: Separate Sewers,Saint Francisville,30.771885,-91.392902,West Feliciana,#N/A,08070201,Bayou Sara-Thompson,N,TOWN OF ST. FRANCISVILLE WWTP,Secondary,Secondary
22003015001,1168297,LA,1.25,1.25,DONALDSONVILLE STP,Collection: Pump Stations,Donaldsonville,30.0655,-90.9659,St. James,#N/A,08090301,East Central Louisiana Coastal,N,"DONALDSONVILLE, CITY OF",Secondary,Secondary
22003067001,1168334,LA,1.6,1.6,FERRIDAY NORTH POND,Treatment Plant,Ferriday,31.6152,-91.5671,#N/A,#N/A,#N/A,#N/A,N,"FERRIDAY, TOWN OF",Secondary,Secondary
22003354001,1168539,LA,1.3,1.8,AMITE CITY STP,Collection: Interceptor Sewers,Amite,30.7199,-90.5052,Tangipahoa,#N/A,08070205,Tangipahoa,N,"AMITE CITY, TOWN OF",Advanced,Advanced
49000100001,1170452,UT,0.45,0.45,EAST CARBON CITY,Treatment Plant,East Carbon,39.5478,-110.4142,Carbon,#N/A,14030005,Upper Colorado-Kane Springs,Y,EAST CARBON CITY,Secondary,Secondary
06005046001,1175566,CA,0.58,0.58,DOS PALOS STP,Collection: Separate Sewers,Dos Palos,36.997549,-120.682669,#N/A,#N/A,#N/A,#N/A,Y,"DOS PALOS, CITY OF",Secondary,Secondary
06005272001,1175747,CA,0.15,0.15,BUTTONWILLOW WWTF,Treatment Plant,Buttonwillow,37.7875,-121.5921,Kern,#N/A,18030012,Tulare-Buena Vista Lakes,N,BUTTONWILLOW CWD,Secondary,Secondary
06007018001,1175927,CA,0.25,0.25,SEELEY CWD WWTF,Collection: Separate Sewers,Seeley,32.7958,-115.6957,#N/A,#N/A,#N/A,#N/A,N,SEELEY CWD,Advanced,Advanced
06008027001,1175982,CA,0.6,0.6,RUNNING SPRINGS WWTF,Treatment Plant,Running Springs,34.2144,-117.1211,#N/A,#N/A,#N/A,#N/A,Y,Running Springs Water District,Advanced,Advanced
06008085001,1176028,CA,22.5,38.5,Temecula Valley Regional WRF,Treatment Plant,Temecula,33.522363,-117.189617,Riverside,#N/A,18070302,Santa Margarita,N,Eastern Municipal Water District,Advanced,Advanced
53000030001,1180743,WA,4.5,4.5,ANACORTES STP,Collection: Separate Sewers,Anacortes,48.518854,-122.607241,Skagit,#N/A,17110002,Strait Of Georgia,N,ANACORTES CITY OF,Secondary,Secondary
53000215001,1180772,WA,2.2,2.2,CLARKSTON STP,Collection: Separate Sewers,Clarkston,46.426188,-117.05997,Asotin,#N/A,17060107,Lower Snake-Tucannon,Y,Clarkston city of,Secondary,Secondary
53000925001,1180867,WA,1.01,1.01,OMAK STP,Treatment Plant,Omak,48.411045,-119.529704,#N/A,#N/A,#N/A,#N/A,N,OMAK CITY OF,Secondary,Secondary
53001000001,1180892,WA,1.93,1.93,South Kitsap Water Reclamation Facility,Collection: Separate Sewers,Port Orchard,47.546071,-122.613234,Kitsap,#N/A,17110019,Puget Sound,N,West Sound Utility District,Secondary,Secondary
53001280001,1180936,WA,60,60,TACOMA CENTRAL STP #1,Treatment Plant,Tacoma,47.2393,-122.4107,Pierce,#N/A,17110014,Puyallup,N,Tacoma City of,Secondary,Secondary
53001485001,1180963,WA,21.5,21.5,Yakima Regional POTW,Collection: Pump Stations,Yakima,46.5813,-120.4711,Yakima,#N/A,17030003,Lower Yakima,N,Yakima City of,Secondary,Secondary
53001585001,1180974,WA,0.3,0.3,BRIDGEPORT WWTP,Collection: Separate Sewers,Bridgeport,48.0172,-119.682,#N/A,#N/A,#N/A,#N/A,Y,Bridgeport City of,Secondary,Secondary
53001665001,1180987,WA,0.047,0.047,CRESTON STP,Treatment Plant,Creston,47.7613,-118.5241,#N/A,#N/A,#N/A,#N/A,Y,Creston City of,Secondary,Secondary
48001023001,1182891,TX,0.405,0.405,Van Horn WWTP,Collection: Separate Sewers,Van Horn,31.0274,-104.8182,#N/A,#N/A,#N/A,#N/A,N,TOWN OF VAN HORN,Secondary,Secondary
48002056001,1183139,TX,0.02,0.02,O'Brien WWTP,Collection: Separate Sewers,O Brien,33.39175,-99.834806,#N/A,#N/A,#N/A,#N/A,N,CITY OF OBRIEN,Secondary,Secondary
48004078005,1183389,TX,0.41,0.41,Airport - Denison,Treatment Plant,Denison,33.7179,-96.6619,#N/A,#N/A,#N/A,#N/A,N,CITY OF DENISON,Secondary,Secondary
48005096001,1183646,TX,1.2,1.2,Rusk WWTP,Treatment Plant,Rusk,31.7741,-95.1525,#N/A,#N/A,#N/A,#N/A,N,CITY OF RUSK,Secondary,Secondary
48007128001,1183942,TX,0.76,1.38,North Mission Glen WWTP,Treatment Plant,Houston,29.679111,-95.665778,#N/A,#N/A,#N/A,#N/A,N,NORTH MISSION GLEN MUD,Secondary,Secondary
48007062001,1227912,TX,0.8,0.8,WILLIS STP,Collection: Separate Sewers,Willis,30.3974,-95.4746,#N/A,#N/A,#N/A,#N/A,N,CITY OF WILLIS,Secondary,Secondary
48007700001,1227933,TX,1.75,1.75,North Park WWTP,Treatment Plant,Houston,30.03,-95.4214,#N/A,#N/A,#N/A,#N/A,N,"NORTH PARK PUD, C/O SMITH,",Secondary,Secondary
55004911001,1229245,WI,0.4,0.4,EAGLE LAKE UD #1 - STP,Treatment Plant,Kansasville,42.7062,-88.1419,Racine,#N/A,07120006,Upper Fox,Y,EAGLE LAKE SEWER UTILITY,Advanced,Advanced
31001896001,1230242,NE,0.08,0.08,STUART WWTP,Treatment Plant,Stuart,42.453,-98.6307,Holt,#N/A,10150007,Lower Niobrara,N,Village of Stuart,Secondary,Secondary
20001139001,1230927,KS,1.4,1.4,RUSSELL WWTP,Collection: Separate Sewers,Russell,38.8746,-98.8415,#N/A,#N/A,#N/A,#N/A,N,RUSSELL WASTEWATER PLANT,Secondary,Secondary
20001207001,1230930,KS,0.021,0.021,BARNARD WWTP,Treatment Plant,Barnard,39.1841,-98.042,#N/A,#N/A,#N/A,#N/A,N,"BARNARD, CITY OF",Secondary,Secondary
27000228001,1231499,MN,0.09,0.09,HILLS WWTP,Collection: Pump Stations,Hills,43.51615938,-96.35531376,Rock,#N/A,10170204,Rock,N,HILLS,Secondary,Secondary
27001403001,1231518,MN,0.095,0.095,BRANDON WWTP,Collection: Separate Sewers,Brandon,45.96291907,-95.57511512,#N/A,#N/A,#N/A,#N/A,Y,BRANDON,Secondary,Secondary
29004067001,1233299,MO,0.79,0.79,Fayette WWTP,Collection: Separate Sewers,Fayette,39.143547,-92.670619,#N/A,#N/A,#N/A,#N/A,Y,City of Fayette,Advanced,Advanced
19000336001,1234656,IA,0.028,0.028,GRAFTON WWTP,Treatment Plant,Grafton,43.3214,-93.0749,#N/A,#N/A,#N/A,#N/A,Y,"GRAFTON, TOWN OF",Secondary,Secondary
47000610001,1235046,TN,0.49,0.49,Greenfield Lagoon,Collection: Separate Sewers,Greenfield,36.162,-88.8149,#N/A,#N/A,#N/A,#N/A,N,"GREENFIELD, TOWN OF",Secondary,Secondary
47001365001,1235077,TN,1.6,1.6,SPARTA STP,Collection: Separate Sewers,Sparta,35.9083,-85.475,#N/A,#N/A,#N/A,#N/A,N,SPARTA WWTP,Secondary,Secondary
51000055001,1235958,VA,0.45,0.45,CHATHAM STP,Treatment Plant,Chatham,36.81234,-79.37736,#N/A,#N/A,#N/A,#N/A,N,Town of Chatham,Secondary,Secondary
51000166001,1235977,VA,23,23,SOUTH CENTRAL REGIONAL WWTP,Collection: Separate Sewers,Petersburg,37.23754,-77.39709,Petersburg,#N/A,02080207,Appomattox,N,Colonial Heights,Advanced,Advanced
37003101001,1236369,NC,0.915,2.165,WARSAW WWTP,Treatment Plant,Warsaw,34.9951,-78.0813,Duplin,#N/A,03030006,Black,N,"WARSAW, TOWN OF",Advanced,Advanced
22000655001,1237409,LA,0.4,0.4,JONESVILLE STP,Collection: Separate Sewers,Jonesville,31.6256,-91.8186,#N/A,#N/A,#N/A,#N/A,N,TOWN OF JONESVILLE,Secondary,Secondary
05000109001,1237645,AR,2.6,2.6,Harrison WWTP,Collection: Separate Sewers,Harrison,36.2408,-93.0808,Boone,#N/A,11010003,Bull Shoals Lake,N,Harrison,Advanced,Advanced
06005094001,1238819,CA,0.11,0.11,PLYMOUTH WWTF,Treatment Plant,Plymouth,38.4939,-120.8886,#N/A,#N/A,#N/A,#N/A,Y,"PLYMOUTH, CITY OF",Secondary,Secondary
01000088001,1239398,AL,4.8,8,Jasper Town Creek WWTP,Treatment Plant,Jasper,33.812359,-87.268471,Walker,#N/A,03160109,Mulberry,N,Jasper Waterworks & Sewer Board,Secondary,Advanced
17001101001,2832260,IL,0.26,0.26,Prophetstown STP,Collection: Combined Sewers,Prophetstown,41.6756,-89.9194,#N/A,#N/A,#N/A,#N/A,N,"PROPHETSTOWN STP, CITY OF",Secondary,Secondary
18004135001,2908422,IN,0.025,0.03,Helmsburg RSD WWTP,Treatment Plant,Nashville,39.2603,-86.2974,Brown,#N/A,05120202,Lower White,Y,HELMSBURG RSD,Advanced,Advanced
20000744002,2919162,KS,1.25,1.875,SPRING HILL WWTP #2,Collection: Separate Sewers,Spring Hill,38.7124,-94.8159,Johnson,#N/A,10290102,Lower Marais Des Cygnes,N,SPRICG HILL WASTEWATER PLT 2,Secondary,Secondary
18005552001,2941288,IN,0.02,0.02,Patriot WWTP,Collection: Separate Sewers,Patriot,38.8339,-84.8292,#N/A,#N/A,#N/A,#N/A,Y,TOWN OF PATRIOT,Advanced,Advanced
36008232001,3530176,NY,0.05,0.05,Woodhull (T) WWTP & Collection System,Collection: Separate Sewers,Woodhull,42.077222,-77.404722,#N/A,#N/A,#N/A,#N/A,N,Town of Woodhull,Secondary,Secondary
01201200002,3539517,AL,0.995,0.995,Odenville-St. Clair Correctional Facility,Treatment Plant,Springville,33.742995,-86.385712,#N/A,#N/A,#N/A,#N/A,N,Odenville utilities Board,Secondary,Secondary
04002801021,439308,AZ,1.8,1.8,Surprise SPA3 WRF,Treatment Plant,Surprise,33.7431,-112.4439,Maricopa,#N/A,15070102,Agua Fria,N,City of Surprise,Advanced,Advanced
27044000660,480186,MN,0.183,0.183,HANCOCK WWTF,Collection: Separate Sewers,Hancock,45.48281162,-95.77832881,#N/A,#N/A,#N/A,#N/A,Y,Hancock  City of,Secondary,Secondary
08000160003,1066955,CO,2.5,2.97,CLIFTON #2 WEST WWTP,Collection: Separate Sewers,Clifton,39.090447,-108.455583,Mesa,#N/A,14010005,Colorado Headwaters-Plateau,N,Clifton Sanitation District,Advanced,Advanced
08000304001,1067090,CO,0.015,0.015,VONA WWTP,Biosolids Handling Facility,Vona,39.3027143,-102.743644,Kit Carson,#N/A,10250003,South Fork Republican,N,"GMS, Inc. Consulting Engineers",Secondary,Secondary
08000500034,1067172,CO,0.02,0.02,"MONTEZUMA, TOWN OF",Treatment Plant,Dillon,39.58140042,-105.867829,#N/A,#N/A,#N/A,#N/A,N,"MONTEZUMA, TOWN OF",Secondary,Secondary
08000500060,1067196,CO,11.9,11.9,Westminster Big Dry Creek WWTF,Treatment Plant,Westminster,39.93756,-104.99496,Adams,#N/A,10190003,Middle South Platte-Cherry Creek,N,"WESTMINSTER, CITY OF",Advanced,Advanced
04001318001,1069457,AZ,230,230,Phoenix 91st Ave WWTP,Treatment Plant,Phoenix,33.396533,-112.246327,Maricopa,#N/A,15060106,Lower Salt,N,"Phoenix, City of",Advanced,Advanced
34001307001,1073412,NJ,3.45,3.45,Morristown Town - CS/STP,Treatment Plant,Cedar Knolls,40.80641136,-74.45771126,Morris,#N/A,02030103,Hackensack-Passaic,N,Morristown Town,Advanced,Advanced
34002109002,1073527,NJ,0.8,0.8,Warren Township - CS / Stage IV STP,Collection: Separate Sewers,Warren,40.648886,-74.523607,Somerset,#N/A,02030103,Hackensack-Passaic,N,Warren Township Sewerage Authority,Advanced,Advanced
12000013001,1078128,FL,4.5,4.5,JACKSONVILLE BEACH WWTF,Collection: Separate Sewers,Jacksonville Beach,30.279,-81.3984,Duval,#N/A,03080103,Lower St. Johns,N,"JACKSONVILLE BEACH, CITY",Advanced,Advanced
12000103001,1078247,FL,10,10,Naples WWTP,Treatment Plant,Naples,26.151903,-81.78819,Collier,#N/A,03090204,Big Cypress Swamp,N,City of Naples,Advanced,Advanced
12000116005,1078265,FL,4,4,IRCUD/Central WWTF,Collection: Separate Sewers,Vero Beach,27.685,-80.421289,Indian River,#N/A,03080203,Vero Beach,N,INDIAN RIVER COUNTY,Advanced,Advanced
12000160001,1078331,FL,1,1,FORT MEADE STP,Collection: Separate Sewers,Fort Meade,27.7498,-81.7839,#N/A,#N/A,#N/A,#N/A,N,Fort Meade,Advanced,Advanced
12000174001,1078339,FL,10.2,10.2,City of Sarasota AWWTF,Water Reuse,Sarasota,27.347711,-82.533154,Sarasota,#N/A,03100201,Sarasota Bay,N,Sarasota,Advanced,Advanced
12000181001,1078345,FL,1.98,1.98,Live Oak WWTF,Treatment Plant,Live Oak,30.307429,-82.992976,Suwannee,#N/A,03110205,Lower Suwannee,N,City of Live Oak,Advanced,Advanced
39000126001,1080550,OH,7.5,7.5,Alliance WWTP & Sewers,Treatment Plant,Alliance,40.9538,-81.1183,Stark,#N/A,05030103,Mahoning,N,CITY OF ALLIANCE,Advanced,Advanced
39001967001,1080973,OH,0.8,0.8,Cridersville WWTP & Sewer System,Treatment Plant,Wapakoneta,40.651,-84.1388,#N/A,#N/A,#N/A,#N/A,Y,VILLAGE OF CRIDERSVILLE,Advanced,Advanced
40000018001,1172438,OK,1.35,1.35,GUTHRIE PWA WWT,Treatment Plant,Guthrie,35.9061,-97.4343,Logan,#N/A,11050002,Lower Cimarron-Skeleton,N,GUTHRIE PUBLIC WORKS AUTHORITY,Secondary,Secondary
40000219001,1172599,OK,0.027,0.027,INDIAHOMA EAST WWT,Collection: Separate Sewers,Indiahoma,34.6162,-98.7429,#N/A,#N/A,#N/A,#N/A,N,"INDIAHOMA, TOWN OF",Secondary,Secondary
40000219002,1172600,OK,0.013,0.013,INDIAHOMA WEST WWT,Treatment Plant,Indiahoma,34.6139,-98.7615,#N/A,#N/A,#N/A,#N/A,N,"INDIAHOMA, TOWN OF",Secondary,Secondary
40000334001,1172626,OK,0.5,0.5,WATONGA WWT,Treatment Plant,Watonga,35.8158,-98.424,Blaine,#N/A,11100301,Middle North Canadian,Y,"WATONGA, CITY OF",Secondary,Secondary
40000401001,1172662,OK,0.01,0.01,LAKELAND WWT,Collection: Separate Sewers,Lawton,34.7511,-98.4841,#N/A,#N/A,#N/A,#N/A,N,"LAWTON, CITY OF",Secondary,Secondary
40000450001,1172695,OK,0.09,0.09,ELMORE CITY WWT,Collection: Separate Sewers,Elmore City,34.6227,-97.3965,Garvin,#N/A,11130303,Middle Washita,Y,"ELMORE CITY, CITY OF",Secondary,Secondary
40000627001,1172793,OK,0.02,0.02,MENO WWT,Collection: Separate Sewers,Meno,36.3867,-98.1783,Major,#N/A,11050002,Lower Cimarron-Skeleton,N,"MENO, TOWN OF",Secondary,Secondary
40000688001,1172826,OK,0.24,0.24,MORRIS NORTHWEST WWT,Treatment Plant,Morris,35.6124,-95.8684,#N/A,#N/A,#N/A,#N/A,Y,"MORRIS, CITY OF",Secondary,Secondary
40000736001,1172846,OK,0.06,0.08,ROFF WWT,Treatment Plant,Roff,34.6348,-96.8339,Pontotoc,#N/A,11140102,Blue,Y,"ROFF, TOWN OF",Secondary,Secondary
40000774001,1172861,OK,0.02,0.02,SASAKWA MA WWT,Treatment Plant,Sasakwa,34.9549,-96.5188,#N/A,#N/A,#N/A,#N/A,Y,SASAKWA MUNICIPAL AUTHORITY,Secondary,Secondary
06001015001,1175184,CA,1.37,1.37,MCKINLEYVILLE WWTF,Collection: Separate Sewers,Mckinleyville,40.943764,-124.121733,#N/A,#N/A,#N/A,#N/A,N,MCKINLEYVILLE COM.SER.D,Secondary,Secondary
06001041001,1175206,CA,1.86,1.86,Crescent City WWTF,Collection: Separate Sewers,Crescent City,41.74703,-124.20177,Del Norte,#N/A,18010101,Smith,N,City of Crescent City,Secondary,Secondary
06002012001,1175273,CA,39,40,Palo Alto Regional WQCP,Treatment Plant,Palo Alto,37.4583,-122.1108,Santa Clara,#N/A,18050004,San Francisco Bay,N,PALO ALTO REGIONAL WATER QUALI,Advanced,Advanced
06002025001,1175283,CA,53.8,53.8,Central Contra Costa WWTF,Water Reuse,Martinez,37.9971,-122.0697,Contra Costa,#N/A,18050001,Suisun Bay,N,Central Contra Costa Sanitary District,Advanced,Advanced
06002063002,1175323,CA,0.04,0.04,PARADISE COVE WWTF,Treatment Plant,Belvedere Tiburon,37.8973607,-122.4660442,Marin,#N/A,18050002,San Pablo Bay,Y,MARIN SD NO. 5,Advanced,Advanced
06003009001,1175378,CA,5.5,5.5,SOLEDAD WWTF,Treatment Plant,Soledad,36.4189481,-121.3386605,#N/A,#N/A,#N/A,#N/A,N,"SOLEDAD, CITYOF",Advanced,Advanced
06003068001,1175436,CA,0.15,0.15,CUYAMA WWTF,Treatment Plant,New Cuyama,34.9522,-119.6961,#N/A,#N/A,#N/A,#N/A,Y,Cuyama Community Services District,Secondary,Secondary
06005022001,1175543,CA,1,1,ORANGE COVE WWTF,Collection: Separate Sewers,Orange Cove,36.6092,-119.3369,Tulare,#N/A,18030007,Upper Kaweah,N,"ORANGE COVE, CITY OF",Advanced,Advanced
06005243001,1175729,CA,1.6,1.6,QUINCY TREATMENT PLANT,Treatment Plant,Quincy,39.9457,-120.9408,#N/A,#N/A,#N/A,#N/A,Y,QUINCY CSD,Secondary,Secondary
06005299001,1175755,CA,0.5,0.5,HAMILTON CITY WWTF,Collection: Separate Sewers,Hamilton City,37.2013,-120.9621,#N/A,#N/A,#N/A,#N/A,Y,HAMILTON CITY COMM SERV D,Secondary,Secondary
46000006001,1179114,SD,0.3,0.3,City of Dell Rapids,Treatment Plant,Dell Rapids,43.812,-96.7354,Minnehaha,#N/A,10170203,Lower Big Sioux,Y,"DELL RAPIDS     ,CITYOF",Advanced,Advanced
48007175001,1183982,TX,0.14,0.14,Beechnut MUD WWTP,Collection: Separate Sewers,Houston,29.6887,-95.6263,#N/A,#N/A,#N/A,#N/A,N,BEECHNUT MUD,Secondary,Secondary
48007304001,1184058,TX,0.5,0.5,Oyster Creek Main WWTP,Treatment Plant,Freeport,28.9702,-95.3091,#N/A,#N/A,#N/A,#N/A,N,CITY OF OYSTER CREEK,Secondary,Secondary
48007444001,1184081,TX,15.5,15.5,Chelford City Regional WWTP,Collection: Separate Sewers,Houston,29.7101,-95.6519,#N/A,#N/A,#N/A,#N/A,N,CHELFORD CITY MUD RESOURCES,Secondary,Secondary
48007826003,1184289,TX,1.3,3,Shenandoah WWTP,Treatment Plant,Conroe,30.194639,-95.446028,Montgomery,#N/A,12040101,West Fork San Jacinto,N,CITY OF SHENANDOAH,Secondary,Secondary
48007854001,1184309,TX,0.25,0.25,Kingston Cove WWTP,Treatment Plant,Houston,30.4103,-95.5622,#N/A,#N/A,#N/A,#N/A,N,MONTGOMERY COUNTY UD 2,Secondary,Secondary
48008028001,1184372,TX,4.2,4.2,Kuelher Road South WWTP,Treatment Plant,New Braunfels,29.687167,-98.0975,Comal,#N/A,12100202,Middle Guadalupe,N,NEW BRAUNFELS UTILITIES,Secondary,Secondary
48008031001,1184377,TX,0.99,0.99,Yoakum WWTP,Collection: Separate Sewers,Yoakum,29.273,-97.1575,#N/A,#N/A,#N/A,#N/A,N,CITY OF YOAKUM,Secondary,Secondary
48008044001,1184391,TX,0.45,0.45,Lytle WWTP,Collection: Separate Sewers,Lytle,29.218068,-98.790138,#N/A,#N/A,#N/A,#N/A,N,CITY OF LYTLE,Secondary,Secondary
48008083001,1184422,TX,0.02,0.02,Carmine WWTP,Treatment Plant,Carmine,30.16,-96.6869,#N/A,#N/A,#N/A,#N/A,N,CARMINE,Secondary,Secondary
51000005001,1192587,VA,4,4,RICHLANDS WWTP & COLLECTION SYSTEM,Collection: Separate Sewers,Richlands,37.0914,-81.8325,Tazewell,#N/A,06010205,Upper Clinch,Y,Town of Richlands,Secondary,Secondary
51000175001,1192769,VA,0.1,0.1,RINER STP,Treatment Plant,Riner,37.058637,-80.441416,#N/A,#N/A,#N/A,#N/A,N,Montgomery County Public Service Authority,Secondary,Secondary
51000232001,1192857,VA,0.201,0,Nassawadox STP,Treatment Plant,Exmore,37.535458,-75.809526,#N/A,#N/A,#N/A,#N/A,N,"EXMORE, TOWN OF",Secondary,Secondary
51001400050,1193065,VA,0.8,0.8,HICKORY FLATS-JONESVILLE,Collection: Separate Sewers,Jonesville,36.697425,-83.017628,Lee,#N/A,06010206,Powell,N,Lee County PSA,Secondary,Secondary
56000071001,1194827,WY,0.025,0.025,MIDWEST LAGOON,Collection: Separate Sewers,Midwest,43.4152,-106.2849,#N/A,#N/A,#N/A,#N/A,N,"MIDWEST, TOWN OF",Secondary,Secondary
56000101001,1194857,WY,0.4,0.4,ALPINE WWTP,Treatment Plant,Alpine,43.1631,-111.0332,Lincoln,#N/A,17040103,Greys-Hobock,N,"Alpine, Town of",Secondary,Secondary
34007206002,2948883,NJ,0.05,0.13,Burlington County STP - Sludge Mgmt,Treatment Plant,Columbus,40.07647354,-74.76997279,Burlington,#N/A,02040201,Crosswicks-Neshaminy,N,Burlington County,Secondary,Secondary
12000173004,2985986,FL,0.85,0.85,N Hutchinson Island WWTF,Collection: Separate Sewers,Fort Pierce,27.522697,-80.312033,#N/A,#N/A,#N/A,#N/A,N,St. Lucie County,Advanced,Advanced
39002969031,3098848,OH,0.149,0.149,Geauga Co Infirmary Creek WWTP,Treatment Plant,Chardon,41.5046,-81.181,#N/A,#N/A,#N/A,#N/A,Y,GEAUGA CTY COMMISSIONERS,Advanced,Advanced
48071225001,3149388,TX,0.65,0.65,Harris Co MUD #304,Treatment Plant,Houston,29.975194,-95.46825,#N/A,#N/A,#N/A,#N/A,N,HARRIS CO MUD #304,Secondary,Secondary
48001286001,3149428,TX,0.4,0.4,Harris Co MUD #360 WWTP,Treatment Plant,Houston,29.979695,-95.632564,#N/A,#N/A,#N/A,#N/A,N,HARRIS CO MUD #360,Secondary,Secondary
04001505030,3160729,AZ,3.5,3.5,Lake Havasu City North Regional WWTP,Treatment Plant,Lake Havasu City,34.5511,-114.3402,Mohave,#N/A,15070201,Lower Gila,N,Lake Havasu City,Advanced,Advanced
49000077001,3192988,UT,0.5,0.5,ENTERPRISE,Treatment Plant,Enterprise,37.5736,-113.7183,Washington,#N/A,14010005,Colorado Headwaters-Plateau,Y,ENTERPRISE CITY,Secondary,Secondary
23000058001,3212188,ME,0.524,0.524,Newport WWTF,Collection: Separate Sewers,Newport,44.81404,-69.26742,Penobscot,#N/A,01030003,Lower Kennebec,N,NEWPORT SANITARY DISTRICT,Secondary,Secondary
48001500601,3346110,TX,0.028,0.028,Clay,Collection: Separate Sewers,Huntsville,30.614519,-95.572067,#N/A,#N/A,#N/A,#N/A,N,CLAY,Secondary,Secondary
31002080001,3346292,NE,0.007,0.005,RICHLAND WWTP,Treatment Plant,Schuyler,41.4367,-97.2127,#N/A,#N/A,#N/A,#N/A,Y,RICHLAND WASTEWATER TREATMENT FACILITY,Secondary,Secondary
39005855002,3367250,OH,0.022,0.022,Auglaize Co Beverly Hills WWTP,Collection: Separate Sewers,Wapakoneta,40.5811,-84.2272,#N/A,#N/A,#N/A,#N/A,Y,Auglaize County Sanitary Engineer,Advanced,Advanced
39005855004,3367450,OH,0.02,0.016,Auglaize Co Pleasantview Estates,Collection: Separate Sewers,Saint Marys,40.545287,-84.350066,#N/A,#N/A,#N/A,#N/A,Y,Auglaize County Sanitary Engineer,Advanced,Advanced
39003326011,3369752,OH,0.099,0.099,Guernsey Co Mental Health Center WWTP,Collection: Separate Sewers,Cambridge,40.0698,-81.5938,#N/A,#N/A,#N/A,#N/A,N,GURNSEY COUNTY COMM,Advanced,Advanced
08000116901,3418767,CO,0.06,0.06,Florissant WSD,Treatment Plant,Florissant,38.9444,-105.2931,Teller,#N/A,10190001,South Platte Headwaters,N,Florissant WSD,Secondary,Secondary
08209000016,3500167,CO,0.02,0.028,"Genoa , Town of",Biosolids Handling Facility,Genoa,39.2792,-103.4899,Lincoln,#N/A,10250001,Arikaree,N,"Genoa, Town of",Secondary,Secondary
08209000042,3500194,CO,1,1,Easter Seals Rocky Mountain Village,Collection: Interceptor Sewers,Idaho Springs,39.753611,-105.6575,#N/A,#N/A,#N/A,#N/A,N,Clear Creek County,Secondary,Secondary
72000002012,3507540,PR,0.461,0.461,Toa Alta WWTP,Collection: Separate Sewers,Toa Alta,18.3855,-66.2452,Toa Alta,#N/A,21010005,Eastern Puerto Rico,N,PRASA,Secondary,Secondary
24000022004,3509877,MD,0.065,0.065,Harbor View WWTP,Collection: Separate Sewers,Chesapeake City,39.509074,-75.869522,#N/A,#N/A,#N/A,#N/A,N,Cecil County Dept. of Public Works,Secondary,Advanced
17002056001,3510776,IL,0.1,0.1,Spoon Valley Lake Sanitary District,Treatment Plant,Dahinda,40.949,-90.1281,#N/A,#N/A,#N/A,#N/A,N,Spoon Valley Lake SD,Secondary,Secondary
26000024001,1088326,MI,0.12,0.12,WESTPHALIA WWTL,Collection: Separate Sewers,Westphalia,42.9304,-84.797,#N/A,#N/A,#N/A,#N/A,N,"WESTPHALIA, VILLAGE OF",Secondary,Secondary
26002139001,1088795,MI,2.19,2.19,SOUTH HAVEN STP,Collection: Separate Sewers,South Haven,42.4105,-86.2674,Van Buren,#N/A,04050002,Black-Macatawa,N,"SOUTH HAVEN, CITY OF",Advanced,Advanced
26003174001,1088945,MI,0.3,0.3,WAYLAND STP,Treatment Plant,Wayland,42.6831,-85.6264,#N/A,#N/A,#N/A,#N/A,N,"WAYLAND, CITY OF",Secondary,Secondary
26004006021,1089024,MI,3,3,COMMERCE TWP WWTP,Collection: Separate Sewers,Walled Lake,42.537,-83.4579,Oakland,#N/A,04090004,Detroit,N,COMMERCE TWP,Secondary,Secondary
26004018001,1089039,MI,1.8,1.8,BERLIN TWP STP,Treatment Plant,Newport,41.9888,-83.2708,#N/A,#N/A,#N/A,#N/A,N,BERLIN TOWNSHIP,Advanced,Advanced
25000239001,1092524,MA,0.75,0.75,Edgartown Sewerage Collection System and WWTF,Treatment Plant,Edgartown,41.3939,-70.5119,Dukes,#N/A,01090002,Cape Cod,N,Edgartown Department of Public Works,Advanced,Advanced
54001308001,1094810,WV,2,2,RONCEVERTE WWTP,Treatment Plant,Ronceverte,37.7423,-80.4731,Greenbrier,#N/A,05050003,Greenbrier,Y,RONCEVERTE CITY OF,Secondary,Secondary
54002102001,1094943,WV,2.5,2.5,WESTON WWTP,Collection: Combined Sewers,Weston,39.0565,-80.4681,Lewis,#N/A,05020002,West Fork,Y,Weston Sanitary Board,Secondary,Secondary
01000034001,1101862,AL,1.6,1.6,CENTREVILLE WWTP,Collection: Separate Sewers,Brent,32.9268,-87.1529,Bibb,#N/A,03150202,Cahaba,Y,Town of Centerville,Secondary,Secondary
01000131002,1101964,AL,0.5,0.5,OZARK NORTHEAST LAGOON,Treatment Plant,Ozark,31.4571,-85.5847,#N/A,#N/A,#N/A,#N/A,N,Ozark Utilities Board,Secondary,Secondary
05000021002,1104889,AR,6,6,Paragould WWTP,Collection: Separate Sewers,Paragould,36.031259,-90.491533,Greene,#N/A,08020203,Lower St. Francis,N,"Paragould, City of",Advanced,Advanced
05000121001,1104955,AR,2.4,2.4,Berryville WWTP,Treatment Plant,Berryville,36.3572,-93.5788,Carroll,#N/A,11010001,Beaver Reservoir,Y,Berryville,Advanced,Advanced
05000132001,1104965,AR,0.27,0.27,Caddo Valley WWTP,Collection: Pump Stations,Friendship,34.1822,-93.0683,#N/A,#N/A,#N/A,#N/A,Y,Caddo Valley,Secondary,Secondary
05000314001,1105140,AR,0.675,0.675,Bald Knob WWTP,Collection: Separate Sewers,Bald Knob,35.2974,-91.5354,White,#N/A,11010014,Little Red,Y,Bald Knob,Advanced,Advanced
05000419001,1105210,AR,0.075,0.075,Sulphur Rock WWTP,Collection: Separate Sewers,Sulphur Rock,35.740278,-91.496667,Independence,#N/A,11010004,Middle White,Y,Sulphur Rock,Advanced,Advanced
05000657001,1105455,AR,0.47,0.47,Wrightsville WWTP,Treatment Plant,Wrightsville,34.615,-92.2108,Pulaski,#N/A,11110207,Lower Arkansas-Maumelle,Y,Wrightsville,Secondary,Secondary
05000753001,1105541,AR,0.047,0.047,Griffithville WWTP,Collection: Separate Sewers,Griffithville,35.1236,-91.6361,#N/A,#N/A,#N/A,#N/A,Y,Griffithville,Secondary,Secondary
13000128001,1109130,GA,0.509,0.509,Lakeland WPCP,Collection: Separate Sewers,Lakeland,31.047306,-83.064833,Lanier,#N/A,03110202,Alapaha,N,Lakeland,Secondary,Secondary
13000575007,1109381,GA,3,3,Rockdale County - Snapping Shoals WCPC,Treatment Plant,Conyers,33.603,-83.9746,#N/A,#N/A,#N/A,#N/A,N,Rockdale County Water Resources,Advanced,Advanced
13000578001,1109386,GA,3,3,Cornelia WPCP,Collection: Pump Stations,Cornelia,34.5225,-83.5543,Habersham,#N/A,03130001,Upper Chattahoochee,Y,Cornelia,Advanced,Advanced
13000640001,1109455,GA,0.4,1.2,Gray Wolf Creek WPCP,Collection: Separate Sewers,Gray,33.003667,-83.511972,Jones,#N/A,03070102,Lower Oconee,Y,Gray,Secondary,Secondary
13000647001,1109465,GA,1.75,1.75,Bear Creek WPCP,Collection: Separate Sewers,Hampton,33.3788,-84.3151,Henry,#N/A,03130005,Upper Flint,N,City of Hampton,Advanced,Advanced
13000748001,1109573,GA,0.131,0.131,Omega LAS,Treatment Plant,Omega,31.327538,-83.633617,Colquitt,#N/A,03110204,Little,N,Omega,Secondary,Secondary
13000814001,1109636,GA,3.6,3.6,Swainsboro WPCP,Treatment Plant,Swainsboro,32.5230425,-82.3503386,#N/A,#N/A,#N/A,#N/A,N,"Swainsboro, City of",Advanced,Advanced
17000537001,1113814,IL,22,22,WAUKEGAN STP - NORTH SHORE S.D.,Treatment Plant,Waukegan,42.373938,-87.817736,Lake,#N/A,07120004,Des Plaines,N,NORTH SHORE SAN. DIST.,Advanced,Advanced
53000575001,1180808,WA,1.01,1.01,ILWACO WASTEWATER TREATMENT PLANT,Treatment Plant,Ilwaco,46.3105,-124.0359,#N/A,#N/A,#N/A,#N/A,Y,Ilwaco City of,Secondary,Secondary
53000745001,1180841,WA,13.3,13.3,MARYSVILLE LAGOON,Treatment Plant,Marysville,48.0481,-122.1751,#N/A,#N/A,#N/A,#N/A,N,MARYSVILLE CITY OF,Secondary,Secondary
53000982002,1180882,WA,18,18,CHAMBERS CREEK,Collection: Separate Sewers,University Place,47.1941,-122.575,Pierce,#N/A,17110019,Puget Sound,N,PIERCE COUNTY,Secondary,Secondary
53002010001,1181022,WA,0.02,0.02,RUSTLEWOOD DEV STP,Collection: Separate Sewers,Shelton,47.2835,-122.9248,#N/A,#N/A,#N/A,#N/A,N,MASON COUNTY,Secondary,Secondary
48000130001,1182816,TX,0.495,0.495,Childress WWTP,Treatment Plant,Childress,34.3751,-100.1254,#N/A,#N/A,#N/A,#N/A,N,CHILDRESS,Secondary,Secondary
48000130002,1182817,TX,0.05,0.05,T.L.Roach Prison Unit,Treatment Plant,Childress,34.434381,-100.200119,#N/A,#N/A,#N/A,#N/A,N,CHILDRESS,Secondary,Secondary
48001123001,1182925,TX,4,4,San Juan WWTP,Collection: Separate Sewers,San Juan,26.161663,-98.16224,Hidalgo,#N/A,12110208,South Laguna Madre,N,SAN JUAN,Secondary,Secondary
48001204001,1182983,TX,0.1,0.1,DRISCOLL STP,Collection: Separate Sewers,Driscoll,27.680611,-97.739361,Nueces,#N/A,12110205,Baffin Bay,N,Driscoll,Secondary,Secondary
48001207001,1182987,TX,1.6,1.6,ARANSAS PASS STP,Treatment Plant,Aransas Pass,27.8822,-97.1544,#N/A,#N/A,#N/A,#N/A,N,CITY OF ARANSAS PASS,Secondary,Secondary
48001216001,1182995,TX,2.02,2.02,East WWTP - Alice,Treatment Plant,Edroy,27.9699,-97.677,#N/A,#N/A,#N/A,#N/A,N,ALICE,Secondary,Secondary
48002049001,1183134,TX,0.21,0.21,Lorenzo WWTP,Treatment Plant,Lorenzo,33.6883,-101.5106,#N/A,#N/A,#N/A,#N/A,N,LORENZO,Secondary,Secondary
48003097001,1183244,TX,0.025,0.025,Malone WWTP,Treatment Plant,Malone,31.909,-96.8883,#N/A,#N/A,#N/A,#N/A,N,CITY OF MALONE,Secondary,Secondary
48003122001,1183266,TX,0.075,0.075,Snook WWTP,Treatment Plant,Snook,30.5041,-96.448,#N/A,#N/A,#N/A,#N/A,N,CITY OF SNOOK,Secondary,Secondary
48004209001,1183463,TX,0.064,0.064,Byers WWTP,Treatment Plant,Byers,34.07537,-98.195805,#N/A,#N/A,#N/A,#N/A,N,CITY OF BYERS,Secondary,Secondary
48004362001,1183532,TX,19,19,Wichita Falls - River Road WWTP,Treatment Plant,Wichita Falls,33.922259,-98.475954,#N/A,#N/A,#N/A,#N/A,N,CITY OF WICHITA FALLS,Secondary,Secondary
48005079001,1183628,TX,0.53,0.53,Ladonia WWTP,Treatment Plant,Ladonia,33.4123,-95.9388,#N/A,#N/A,#N/A,#N/A,N,CITY OF LADONIA,Secondary,Secondary
48005108001,1183654,TX,0.195,0.195,Wolfe City WWTP,Treatment Plant,Wolfe City,33.34867,-96.075989,#N/A,#N/A,#N/A,#N/A,N,CITY OF WOLFE CITY,Secondary,Secondary
48005262001,1183668,TX,0.1,0.1,Roxton WWTP,Treatment Plant,Roxton,33.5363,-95.7219,#N/A,#N/A,#N/A,#N/A,N,LAMAR CO WCID #1,Secondary,Secondary
48006047002,1183710,TX,0.5,0.5,City of Crockett WWTP #2 (Southside),Collection: Separate Sewers,Crockett,31.297389,-95.441889,Houston,#N/A,12030202,Lower Trinity-Kickapoo,Y,CITY OF CROCKETT,Secondary,Secondary
48007039082,1183850,TX,23.1,23.1,Keegan's Bayou WWTP,Collection: Separate Sewers,Houston,29.67085,-95.54144,Harris,#N/A,12040104,Buffalo-San Jacinto,N,Houston,Secondary,Secondary
48007081001,1183905,TX,0.25,0.25,Tiki Island WWTP,Collection: Separate Sewers,Galveston,29.3008,-94.9052,#N/A,#N/A,#N/A,#N/A,N,GALVESTON COUNTY FWSD NO. 6,Secondary,Secondary
48007218001,1184010,TX,0.557,0.557,Beaumont Place STP,Collection: Separate Sewers,Beaumont,30.087514,-94.119873,#N/A,#N/A,#N/A,#N/A,N,BEAUMONT PLACE,Secondary,Secondary
48007694001,1184220,TX,0.2,0.2,Mount Houston Road WWTP,Collection: Separate Sewers,Houston,29.9099,-95.446,#N/A,#N/A,#N/A,#N/A,N,MOUNT HOUSTON ROAD MUD,Secondary,Secondary
48008030001,1184376,TX,2.5,2.5,Uvalde WWTP,Treatment Plant,Uvalde,29.127751,-99.887307,#N/A,#N/A,#N/A,#N/A,N,CITY OF UVALDE,Secondary,Secondary
48009002001,1184466,TX,0.53,0.53,Winters,Collection: Separate Sewers,Winters,31.9419,-99.9511,Runnels,#N/A,12090101,Middle Colorado-Elm,N,WINTERS,Secondary,Secondary
48009518001,1184519,TX,2.91,2.91,Southside WWTP - Mount Pleasant,Treatment Plant,Houston,29.8905,-95.6094,#N/A,#N/A,#N/A,#N/A,N,CHIMNEY HILL MUD,Secondary,Secondary
55005240001,1206724,WI,0.7,0.7,WEYAUWEGA STP,Collection: Separate Sewers,Weyauwega,44.32605,-88.93195,Waupaca,#N/A,04030202,Wolf,Y,"WEYAUWEGA, CITY OF",Advanced,Advanced
24000300032,1214447,MD,1.5,1.5,DAMASCUS WWTP,Collection: Pump Stations,Gaithersburg,39.246,-77.2046,Montgomery,#N/A,02070008,Middle Potomac-Catoctin,N,Washington Suburban Sanitary Commission,Advanced,Advanced
02000251001,1216410,AK,0.03,0.03,Kwethluk Lagoon,Treatment Plant,Kwethluk,60.8056,-161.4294,#N/A,#N/A,#N/A,#N/A,N,"KWETHLUK, VILLAGE OF",Secondary,Secondary
36001021001,1220294,NY,1.3,1.3,Riverhead (T) STP & Sewers,Treatment Plant,Riverhead,40.923,-72.645,Suffolk,#N/A,02030202,Southern Long Island,N,Town of Riverhead,Advanced,Advanced
36003141001,1220586,NY,0.1,0.1,Rosendale (T) STP,Treatment Plant,Rosendale,41.847083,-74.072139,#N/A,#N/A,#N/A,#N/A,N,ROSENDALE (T),Secondary,Secondary
36003166001,1220626,NY,0.06,0.06,"Lewisboro, (T) Wild Oaks WWTP",Treatment Plant,Goldens Bridge,41.303472,-73.662556,#N/A,#N/A,#N/A,#N/A,N,LEWISBORO TOWN OF,Advanced,Advanced
36005008002,1220819,NY,0.048,0.048,Peru (T) Valcour WWTP,Collection: Separate Sewers,Peru,44.580601,-73.556526,Clinton,#N/A,02010008,Lake Champlain,N,Peru (T),Secondary,Secondary
36006030002,1220958,NY,0.034,0.034,Clayton (T) Depauville STP,Treatment Plant,Depauville,44.1392,-76.0681,Jefferson,#N/A,04150102,Chaumont-Perch,Y,"CLAYTON,  TOWN OF",Secondary,Secondary
36007227001,1221190,NY,13.1,13.1,Ithaca (C) Ithaca Area STP,Collection: Separate Sewers,Ithaca,42.4646,-76.5129,#N/A,#N/A,#N/A,#N/A,N,Ithaca (C),Secondary,Secondary
36008170001,1221309,NY,0.323,0.323,Bloomfield (V) STP,Collection: Separate Sewers,Bloomfield,42.9032,-77.4202,#N/A,#N/A,#N/A,#N/A,Y,Village of Bloomfield,Advanced,Advanced
36009050001,1221371,NY,3.3,3.3,Fredonia (V) WWTP,Collection: Separate Sewers,Dunkirk,42.486866,-79.342171,#N/A,#N/A,#N/A,#N/A,N,FREDONIA (V),Advanced,Advanced
48002059001,1227793,TX,0.075,0.075,Rochester WWTP,Treatment Plant,Rochester,33.314391,-99.852548,#N/A,#N/A,#N/A,#N/A,N,ROCHESTER,Secondary,Secondary
48003126001,1227827,TX,0.2,0.2,Lexington WWTP,Treatment Plant,Lexington,30.407917,-97.014333,#N/A,#N/A,#N/A,#N/A,N,CITY OF LEXINGTON,Secondary,Secondary
48004094001,1227847,TX,0.3,0.3,Grandview WWTP,Collection: Separate Sewers,Grandview,32.254333,-97.148194,Johnson,#N/A,12030109,Chambers,N,Grandview,Advanced,Advanced
48004207001,1227852,TX,0.95,0.95,Breckenridge WWTP,Treatment Plant,Breckenridge,32.7715,-98.8964,Stephens,#N/A,12060105,Hubbard,N,CITY OF BRECKENRIDGE,Secondary,Secondary
48006053001,1227899,TX,1.8,1.8,Jasper WWTP,Treatment Plant,Jasper,30.915,-94.01,#N/A,#N/A,#N/A,#N/A,N,CITY OF JASPER,Secondary,Secondary
18120000006,3524861,IN,0.23,0.23,Florence RSD,Collection: Separate Sewers,Florence,38.7872,-84.9309,Switzerland,#N/A,05090203,Middle Ohio-Laughery,Y,FLORENCE REGIONAL SEWER DISTRICT,Advanced,Advanced
08201200066,3530196,CO,0.15,0.15,Two Rivers Metropolitan District,Collection: Interceptor Sewers,Edwards,39.6447,-107.074,Eagle,#N/A,14010003,Eagle,N,Two Rivers Metropolitan District,Secondary,Secondary
12000037018,3536216,FL,2.4,2.4,Oviedo WRF,Treatment Plant,Oviedo,28.6406,-81.1886,Seminole,#N/A,03080101,Upper St. Johns,N,Oviedo,Advanced,Advanced
48001256002,3536396,TX,0.067,0.067,Senna Hills MUD,Treatment Plant,Austin,30.1623,-97.4812,#N/A,#N/A,#N/A,#N/A,N,Senna Hills MUD,Secondary,Secondary
39002370005,3538756,OH,0.016,0.016,Knox County Brandon WWTP,Treatment Plant,Mount Vernon,40.3122,-82.5089,#N/A,#N/A,#N/A,#N/A,N,Knox County Water & Sewer,Advanced,Advanced
39008374002,384711,OH,0.007,0.007,Union Co Crottinger Estates,Collection: Separate Sewers,Plain City,40.1418,-83.2482,#N/A,#N/A,#N/A,#N/A,Y,UNION CO. COMMISSIONERS,Advanced,Advanced
39000223004,385153,OH,0.013,0.013,Shelby Co Fair Haven WWTP,Collection: Separate Sewers,Sidney,40.2501,-84.2033,#N/A,#N/A,#N/A,#N/A,Y,FAIR HAVEN SHELBY CO. HOME,Advanced,Advanced
47000963002,398824,TN,0.5,0.5,Monteagle STP #3,Treatment Plant,Monteagle,35.232,-85.863,#N/A,#N/A,#N/A,#N/A,N,"Monteagle, Town of",Advanced,Advanced
12000101007,409106,FL,2,3,Rotonda WWTP,Collection: Separate Sewers,Placida,26.8718,-82.2886,Charlotte,#N/A,03090205,Caloosahatchee,N,Charlotte County Utilities,Advanced,Advanced
20000808001,1230909,KS,0.156,0.156,HIGHLAND WWTP,Treatment Plant,Highland,39.8625,-95.2521,Doniphan,#N/A,10240005,Tarkio-Wolf,N,"HIGHLAND, CITY OF",Secondary,Secondary
20001013001,1230920,KS,0.225,0.225,PLAINVILLE WWTP,Treatment Plant,Plainville,39.2184,-99.2837,#N/A,#N/A,#N/A,#N/A,N,"PLAINVILLE, CITY OF",Secondary,Secondary
20001224001,1230932,KS,0.08,0.067,LOGAN WWTP,Treatment Plant,Logan,39.6508,-99.5558,#N/A,#N/A,#N/A,#N/A,N,"LOGAN, CITY OF",Secondary,Secondary
27000253001,1231502,MN,0.043,0.043,MURDOCK WWTP,Collection: Separate Sewers,Murdock,45.23250321,-95.38899847,Swift,#N/A,07020005,Chippewa,Y,"MURDOCK, VILLAGE OF",Secondary,Secondary
36009018001,1232182,NY,2.2,2.2,Wellsville (V) WWTP,Treatment Plant,Wellsville,42.12714,-77.96484,#N/A,#N/A,#N/A,#N/A,N,Village of Wellsville,Advanced,Advanced
29002473001,1233261,MO,0.77,0.77,Lamar WWTP,Collection: Separate Sewers,Lamar,37.482446,-94.287338,Barton,#N/A,11070207,Spring,Y,City of Lamar,Advanced,Advanced
18000256001,1234177,IN,0.37,0.37,WATERLOO WWTP,Treatment Plant,Waterloo,41.4307,-85.0098,De Kalb,#N/A,04100003,St. Joseph,Y,WATERLOO WWTP,Advanced,Advanced
18001814001,1234186,IN,0.08,0.08,REYNOLDS WWTP,Collection: Separate Sewers,Reynolds,40.7552,-86.8828,#N/A,#N/A,#N/A,#N/A,Y,TOWN COUNCIL PRESIDENT,Secondary,Secondary
47000460001,1235041,TN,0.25,0.25,ENGLEWOOD STP,Collection: Separate Sewers,Englewood,35.4169,-84.4897,#N/A,#N/A,#N/A,#N/A,N,ENGLEWOOD STP,Secondary,Secondary
47000895001,1235056,TN,4.3,4.3,MANCHESTER WWTP,Treatment Plant,Manchester,35.4817,-86.0983,#N/A,#N/A,#N/A,#N/A,N,MANCHESTER STP,Advanced,Advanced
21000152001,1235493,KY,2,2,WILLIAMSTOWN STP,Collection: Separate Sewers,Williamstown,38.631208,-84.61881,Grant,#N/A,05100205,Lower Kentucky,N,CITY OF WILLIAMSTOWN,Secondary,Secondary
21000287001,1235511,KY,1.5,1.5,MARION STP,Treatment Plant,Marion,37.331667,-88.081389,#N/A,#N/A,#N/A,#N/A,N,City of MARION,Secondary,Secondary
05000632001,1237662,AR,0.2,0.2,London WWTP,Collection: Separate Sewers,London,35.327863,-93.2649,Pope,#N/A,11110202,Dardanelle Reservoir,Y,London,Advanced,Advanced
06005033001,1238815,CA,0.5,0.5,Williams WWTF,Collection: Separate Sewers,Williams,39.1697,-122.1536,#N/A,#N/A,#N/A,#N/A,Y,"WILLIAMS, CITY OF",Advanced,Advanced
53000640001,1238902,WA,0.69,0.69,LA CENTER STP,Treatment Plant,La Center,45.8616,-122.6719,#N/A,#N/A,#N/A,#N/A,Y,LA CENTER CITY OF,Secondary,Secondary
01000104004,1239400,AL,0.5,0.5,MARION WWTP,Treatment Plant,Marion,32.6237,-87.2963,Perry,#N/A,03150202,Cahaba,N,"Marion, City of",Secondary,Secondary
12000111001,1239620,FL,0.2,0.2,TRENTON WWTF,Collection: Separate Sewers,Trenton,29.6268,-82.9688,#N/A,#N/A,#N/A,#N/A,N,Trenton,Advanced,Advanced
20000477001,2919247,KS,0.015,0.015,WB CO SD #1 WWTP (FLINTVIEW SUBD),Treatment Plant,Alma,39.0556,-96.1688,#N/A,#N/A,#N/A,#N/A,N,WABAUNSEE COUNTY COMMISSION,Secondary,Secondary
40000679001,3090328,OK,0.52,0.52,OKEMAH PWA WWT,Treatment Plant,Okemah,35.424105,-96.284652,#N/A,#N/A,#N/A,#N/A,Y,OKEMAH UTILITIES AUTHORITY,Advanced,Advanced
22009079032,3188930,LA,0.03,0,Donahue East WWTP,Collection: Pump Stations,Pineville,31.3671,-92.3631,Rapides,#N/A,08040304,Little,N,RAPIDES PARISH SEWERAGE DIST NO.2,Secondary,0
18001619001,1234185,IN,0.14,0.14,PALMYRA WWTP,Collection: Separate Sewers,Palmyra,38.4156,-86.1224,Harrison,#N/A,05140104,Blue-Sinking,Y,PALMYRA MUNICIPAL WWTP,Advanced,Advanced
